{"version": 0.6, "generator": "Overpass API 0.7.62.5 1bd436f1", "osm3s": {"timestamp_osm_base": "2025-04-11T22:09:23Z", "copyright": "The data included in this document is from www.openstreetmap.org. The data is made available under ODbL."}, "elements": [{"type": "node", "id": 2795637364, "lat": 49.1015418, "lon": -122.6366492, "tags": {"historic": "memorial", "memorial": "war_memorial", "name": "Afghanistan War Memorial", "website": "https://www.waymarking.com/waymarks/WMP1J5_Afghanistan_Iraq_War_Memorial_Derek_Doubleday_Arboretum_Langley_BC"}}, {"type": "node", "id": 3646800225, "lat": 49.2835675, "lon": -123.0332387, "tags": {"description": "The statue memorializes the 1954 Empire Games mile run by England's Roger Bannister and Australian John Land.", "historic": "memorial", "memorial": "statue", "name": "Landy Bannister 'Miracle Mile' statue"}}, {"type": "node", "id": 4480836756, "lat": 49.1722017, "lon": -122.5895063, "tags": {"description": "In honour of Jesse Wright", "historic": "memorial"}}, {"type": "node", "id": 5122316922, "lat": 49.2109418, "lon": -122.5245805, "tags": {"historic": "memorial", "inscription": "Arnold Cliff Falls", "memorial": "plaque"}}, {"type": "node", "id": 5125824451, "lat": 49.2112076, "lon": -122.5071445, "tags": {"historic": "memorial", "inscription": "opened 2017-04-30", "memorial": "plaque"}}, {"type": "node", "id": 5314283741, "lat": 49.1994909, "lon": -122.5564963, "tags": {"historic": "memorial", "memorial": "plaque"}}, {"type": "node", "id": 5315027725, "lat": 49.1986789, "lon": -122.5841316, "tags": {"historic": "memorial", "inscription": "OUR THANKS\u00b6TO BILL ARCHIBALD \"Trail Boss\"\u00b6 FOR THESE STAIRS, CREATING\u00b6RECREATIONAL ACCESS TO THE\u00b6 FRASER RIVER.", "memorial": "plaque"}}, {"type": "node", "id": 5315050038, "lat": 49.1979728, "lon": -122.5810166, "tags": {"amenity": "bench", "backrest": "yes", "historic": "memorial", "inscription": "In Loving Memory\u00b6of John James May 24/45 - July 18/07\u00b6 Janice Lynn James Feb 18/34 - Apr 5/06", "memorial": "plaque"}}, {"type": "node", "id": 5487378362, "lat": 49.1889429, "lon": -122.8905009, "tags": {"historic": "memorial", "memorial": "plaque", "name": "Snake Hill"}}, {"type": "node", "id": 6150465277, "lat": 49.2843639, "lon": -122.998745, "tags": {"historic": "memorial", "inscription": "GRIFFITHS MEMORIAL PLAYGROUND This playground is dedicated to the use and enjoyment of the children of Burnaby in honour of STANLEY JAMES GRIFFITHS Principal of Gilmore Avenue School From 1915 to 1947 Officially opened on Canada Day -- July 1st 1949 --", "memorial": "plaque", "name": "Griffiths Memorial", "website": "https://www.waymarking.com/waymarks/WM8V6G_Griffiths_Memorial_Playground_Burnaby_BC"}}, {"type": "node", "id": 6218038787, "lat": 49.2765515, "lon": -122.862252, "tags": {"historic": "memorial", "inscription": "PERRY DOUGLAS ROE 1863 \u2013 1926  P.D. Roe was Port Moody\u2019s first mayor. From 1913 to 1915 (and again from 1918 to 1923). He arrived in Port Moody as a young cowboy from the American south, and became on the community\u2019s leading employers (Co-owner, Canadian", "material": "metal", "memorial": "plaque", "name": "Perry Douglas Roe", "website": "https://www.waymarking.com/waymarks/WM95EB_Perry_Douglas_Roe_Port_Moody_BC"}}, {"type": "node", "id": 6218048090, "lat": 49.2768008, "lon": -122.863032, "tags": {"historic": "memorial", "inscription": "DR. CHARLES RITCHIE SYMMES\n1875 \u2013 1946\n\nDr. Charles Symmes practiced medicine in Port Moody from 1909 to 1946. He regularly rowed across the inlet to Ioco to see patients. Born in Quebec, he was bilingual, and was sometimes called upon to attend patients", "material": "metal", "memorial": "plaque", "name": "Dr. Charles Ritchie Symmes"}}, {"type": "node", "id": 6230832185, "lat": 49.0020864, "lon": -122.7553415, "tags": {"description": "A two-sided stone memorial on the US\u2013Canada border commemorating the centennial of the Oregon Treaty of 1846.", "direction": "180;360", "historic": "memorial", "inscription": "In commemoration of the centennial of the signing of the Oregon Boundary Treaty of 1846 // This monument was erected jointly by Canadians and Americans on the international boundary line which has always remained unfortified and undefended. The symbol of", "inscription:en": "In 1819 an international agreement provided for the joint Anglo-American occupation of the Oregon Territory\u2013the country west of the Rocky Mountains between 42\u00b0N and 54\u00b040' N. By 1843, however, the conflicting claims of American settlers and British fur tr", "inscription:fr": "Une entente internationale d\u00e9termina en 1819 l'occupation anglo-am\u00e9ricaine conjointe de la c\u00f4te nord-ouest de l'Am\u00e9rique entre les 42\u00b0 et 54\u00b0 40' parall\u00e8les. Mais l'expansion de la colonisation am\u00e9ricaine se heurta bient\u00f4t au commerce britannique des four", "material": "stone", "memorial": "plaque", "name": "Oregon Treaty Centennial Monument", "operator": "Historic Sites and Monuments Board of Canada", "start_date": "1946-06-15", "subject:wikidata": "Q823433", "subject:wikipedia": "en:Oregon Treaty", "website": "https://www.pc.gc.ca/apps/dfhd/page_nhs_eng.aspx?id=924", "website:waymarking": "http://www.waymarking.com/waymarks/WMEN10"}}, {"type": "node", "id": 6336366882, "lat": 49.1828951, "lon": -122.8506047, "tags": {"historic": "memorial"}}, {"type": "node", "id": 6513544814, "lat": 49.0245947, "lon": -122.8181416, "tags": {"historic": "memorial", "material": "granite", "memorial": "plaque", "name": "West Beach Observation Point"}}, {"type": "node", "id": 6581341043, "lat": 49.0236541, "lon": -122.7984357}, {"type": "node", "id": 6581341044, "lat": 49.0236234, "lon": -122.7984577}, {"type": "node", "id": 6581341045, "lat": 49.0236382, "lon": -122.7985057}, {"type": "node", "id": 6581341046, "lat": 49.0236689, "lon": -122.7984847}, {"type": "node", "id": 6641298282, "lat": 49.0809121, "lon": -123.0087938, "tags": {"historic": "memorial", "material": "stone", "memorial": "war_memorial", "name": "Boundary Bay Airport Cenotaph"}}, {"type": "node", "id": 6744903800, "lat": 49.2064574, "lon": -122.9106165, "tags": {"historic": "memorial", "memorial": "statue"}}, {"type": "node", "id": 7098855311, "lat": 49.0243825, "lon": -122.8178526, "tags": {"historic": "memorial", "memorial": "plaque", "name": "Firminger"}}, {"type": "node", "id": 7366627270, "lat": 49.2569273, "lon": -123.0500798, "tags": {"historic": "memorial", "memorial": "war_memorial"}}, {"type": "node", "id": 7393739789, "lat": 49.0880114, "lon": -123.0520954}, {"type": "node", "id": 7393739790, "lat": 49.0880107, "lon": -123.0520516}, {"type": "node", "id": 7393739791, "lat": 49.0879953, "lon": -123.052011}, {"type": "node", "id": 7393739792, "lat": 49.0879512, "lon": -123.0519917}, {"type": "node", "id": 7393739793, "lat": 49.0879176, "lon": -123.0520484}, {"type": "node", "id": 7393739794, "lat": 49.0879176, "lon": -123.0521146}, {"type": "node", "id": 7393739795, "lat": 49.0879533, "lon": -123.0521648}, {"type": "node", "id": 7393739796, "lat": 49.0879974, "lon": -123.0521467}, {"type": "node", "id": 7538456134, "lat": 49.1403193, "lon": -122.8884337, "tags": {"artist_name": "Jarnail Singh", "historic": "memorial", "inscription": "Komagata Maru - 1914\nWe Remember", "material": "paint", "memorial": "mural", "name": "Komagata Maru Memorial"}}, {"type": "node", "id": 7647381959, "lat": 49.058465, "lon": -122.8777013, "tags": {"historic": "memorial", "name": "Rene Savenye"}}, {"type": "node", "id": 7949587285, "lat": 49.2221232, "lon": -122.896863, "tags": {"historic": "memorial", "name": "Grave of John \"Gassy Jack\" Deighton", "name:en": "Grave of John \"Gassy Jack\" Deighton"}}, {"type": "node", "id": 7949590886, "lat": 49.222295, "lon": -122.8983098, "tags": {"historic": "memorial", "name": "Grave of Raymond Burr", "name:en": "Grave of Raymond Burr"}}, {"type": "node", "id": 8060069685, "lat": 49.2322743, "lon": -123.0133696, "tags": {"historic": "memorial", "memorial": "plaque", "name": "Jubilee Grove", "survey:date": "2020-10-28"}}, {"type": "node", "id": 8069374854, "lat": 49.0020976, "lon": -122.7562249, "tags": {"description": "Historical marker plaque", "historic": "memorial", "operator": "Kiwanis", "start_date": "1936-04-25"}}, {"type": "node", "id": 8140678409, "lat": 49.0843532, "lon": -122.6302913, "tags": {"historic": "memorial", "memorial": "war_memorial", "name": "Murrayville Cenotaph"}}, {"type": "node", "id": 8147940828, "lat": 49.1044869, "lon": -122.7328847, "tags": {"historic": "memorial", "material": "stone", "memorial": "war_memorial", "name": "Surrey Cenotaph"}}, {"type": "node", "id": 8147983919, "lat": 49.1045256, "lon": -122.7328617}, {"type": "node", "id": 8147983920, "lat": 49.1045259, "lon": -122.7329057}, {"type": "node", "id": 8147983921, "lat": 49.1044796, "lon": -122.7329067}, {"type": "node", "id": 8147983922, "lat": 49.1044793, "lon": -122.7328627}, {"type": "node", "id": 8150372000, "lat": 49.0217387, "lon": -122.800783, "tags": {"historic": "memorial", "inscription": "NESTER JOHN IZOWSKY MEMORIAL ROSE GARDEN Publisher, Gardener, Rortarian\nand good citizen\n\nPlaced by\nRotary Club of White Rock", "memorial": "plaque", "name": "Nestor John Izowsky", "website": "https://www.waymarking.com/waymarks/wm1132W_Nestor_John_Izowsky_White_Rock_BC"}}, {"type": "node", "id": 8177314170, "lat": 49.0057763, "lon": -122.4693763, "tags": {"historic": "memorial", "name": "Gordon Smith"}}, {"type": "node", "id": 8177660313, "lat": 49.1002626, "lon": -122.6377189, "tags": {"historic": "memorial", "material": "stone", "memorial": "war_memorial", "name": "Gapyeong Stone Korean War Memorial"}}, {"type": "node", "id": 8375699988, "lat": 49.1689632, "lon": -122.5748841, "tags": {"historic": "memorial", "memorial": "plaque", "name": "Holy Redeemer Church"}}, {"type": "node", "id": 8403351955, "lat": 49.0269078, "lon": -122.832785, "tags": {"historic": "memorial", "memorial": "plaque", "name": "Thomas Davis Coldicutt"}}, {"type": "node", "id": 8415967217, "lat": 49.2284145, "lon": -123.0229909, "tags": {"historic": "memorial", "memorial": "plaque", "name": "Korean War Memorial", "survey:date": "2021-02-09"}}, {"type": "node", "id": 8415967218, "lat": 49.2288319, "lon": -123.022602, "tags": {"historic": "memorial", "memorial": "plaque", "name": "The Central Park Story", "survey:date": "2021-02-09"}}, {"type": "node", "id": 8699521315, "lat": 49.0454054, "lon": -122.5042456, "tags": {"historic": "memorial", "inscription": "Hector John Roderick Jackson, M.C.", "memorial": "war_memorial"}}, {"type": "node", "id": 8997357820, "lat": 49.2242807, "lon": -123.0081611, "tags": {"historic": "memorial", "memorial": "plaque", "name": "Maywood - A Story of Growth", "start_date": "1983", "survey:date": "2021-08-10"}}, {"type": "node", "id": 9012769717, "lat": 49.2164101, "lon": -123.0083886, "tags": {"historic": "memorial", "memorial": "plaque", "name": "David Gray Park", "start_date": "1972-01-27", "survey:date": "2021-08-16"}}, {"type": "node", "id": 9081164848, "lat": 49.2332976, "lon": -122.8923157, "tags": {"historic": "memorial", "memorial": "plaque"}}, {"type": "node", "id": 9143702684, "lat": 49.188114, "lon": -122.5885338, "tags": {"amenity": "bench", "backrest": "yes", "historic": "memorial", "material": "wood,_metal", "memorial": "plaque"}}, {"type": "node", "id": 9309853950, "lat": 49.2528693, "lon": -122.864607, "tags": {"historic": "memorial", "inscription": "In Memory of Laurie Ann Garrison", "memorial": "plaque"}}, {"type": "node", "id": 9381204484, "lat": 49.2623815, "lon": -122.7809581, "tags": {"historic": "memorial", "memorial": "war_memorial", "name": "Port Coquitlam Cenotaph"}}, {"type": "node", "id": 9382980598, "lat": 49.2643294, "lon": -122.7803183, "tags": {"historic": "memorial", "memorial": "war_memorial", "name": "Port Coquitlam Legion #133 Cenotaph"}}, {"type": "node", "id": 9392912908, "lat": 49.0285403, "lon": -122.84297, "tags": {"historic": "memorial", "memorial": "plaque", "name": "William R. Barge"}}, {"type": "node", "id": 9392966312, "lat": 49.0345692, "lon": -122.845224, "tags": {"historic": "memorial", "memorial": "plaque", "name": "John & Kathleen Bell"}}, {"type": "node", "id": 9408933179, "lat": 49.016328, "lon": -122.7903588, "tags": {"historic": "memorial", "material": "stone", "memorial": "stone", "name": "Brock's Rock"}}, {"type": "node", "id": 9408933181, "lat": 49.2065498, "lon": -122.9109059, "tags": {"historic": "memorial", "material": "metal", "memorial": "plaque", "name": "John Robson"}}, {"type": "node", "id": 9408938194, "lat": 49.276513, "lon": -122.8572743, "tags": {"historic": "memorial", "inscription": "In memory of\nH. A. Ungless\nSalvation Army Envoy\nwho devoted his life to the\nservice of his fellow men\n1886 - 1959", "material": "metal", "memorial": "plaque", "name": "H.A. Ungless"}}, {"type": "node", "id": 9461953370, "lat": 49.2256626, "lon": -123.0127799, "tags": {"historic": "memorial", "material": "flowers", "name": "Marrisa Shen Memorial", "subject:wikidata": "Q56599709", "subject:wikipedia": "zh:\u7533\u5c0f\u96e8\u8b00\u6bba\u6848"}}, {"type": "node", "id": 9561951596, "lat": 49.0505832, "lon": -122.867621, "tags": {"historic": "memorial", "memorial": "war_memorial"}}, {"type": "node", "id": 9561951597, "lat": 49.0505934, "lon": -122.8675822, "tags": {"historic": "memorial", "memorial": "war_memorial"}}, {"type": "node", "id": 9561951598, "lat": 49.0505797, "lon": -122.8675383, "tags": {"historic": "memorial", "memorial": "war_memorial"}}, {"type": "node", "id": 9575559282, "lat": 49.1008709, "lon": -122.6380997}, {"type": "node", "id": 9575559290, "lat": 49.1007238, "lon": -122.6393311, "tags": {"historic": "memorial", "memorial": "stele"}}, {"type": "node", "id": 9575559292, "lat": 49.1003999, "lon": -122.6391867, "tags": {"historic": "memorial", "memorial": "plaque", "name": "Community Arbour Day, Murrayville"}}, {"type": "node", "id": 9575778846, "lat": 49.100935, "lon": -122.6380339}, {"type": "node", "id": 9575778877, "lat": 49.1010028, "lon": -122.6380801}, {"type": "node", "id": 9575778881, "lat": 49.0994707, "lon": -122.6350554, "tags": {"historic": "memorial", "memorial": "plaque", "name": "A Walk to Remember"}}, {"type": "node", "id": 9575778889, "lat": 49.10097, "lon": -122.6380262}, {"type": "node", "id": 9575778892, "lat": 49.1009072, "lon": -122.638239}, {"type": "node", "id": 9575778894, "lat": 49.1008293, "lon": -122.6382448}, {"type": "node", "id": 9575778896, "lat": 49.1009656, "lon": -122.6382376}, {"type": "node", "id": 9575778911, "lat": 49.1007849, "lon": -122.6381044}, {"type": "node", "id": 9575778913, "lat": 49.1007965, "lon": -122.638197}, {"type": "node", "id": 9575778918, "lat": 49.1017068, "lon": -122.6367892, "tags": {"historic": "memorial", "memorial": "plaque", "name": "Local Government Management Association"}}, {"type": "node", "id": 9575778919, "lat": 49.1010072, "lon": -122.6381493}, {"type": "node", "id": 9575778922, "lat": 49.1008187, "lon": -122.6380806}, {"type": "node", "id": 9691161867, "lat": 49.2764974, "lon": -122.8937533, "tags": {"historic": "memorial", "memorial": "plaque", "name": "North Road"}}, {"type": "node", "id": 9695653795, "lat": 49.2412492, "lon": -122.4772553, "tags": {"historic": "memorial", "memorial": "plaque", "name": "Ryan"}}, {"type": "node", "id": 9802973683, "lat": 49.2072383, "lon": -122.9100989, "tags": {"historic": "memorial", "memorial": "stone", "name": "Duke of Connaught High School 1912\u20131955", "start_date": "2005-09-24"}}, {"type": "node", "id": 10155206856, "lat": 49.1668219, "lon": -122.8453598, "tags": {"board_type": "history", "historic": "memorial", "information": "board", "material": "metal", "memorial": "plaque", "name": "BCTF 100: Celebrating a Century"}}, {"type": "node", "id": 10184308734, "lat": 49.2713622, "lon": -122.5691326, "tags": {"direction": "30", "historic": "memorial", "material": "metal", "memorial": "plaque", "name": "Jack Walters Mechanized Silviculture"}}, {"type": "node", "id": 10195292002, "lat": 49.2821539, "lon": -122.5739342, "tags": {"direction": "130", "historic": "memorial", "inscription": "In loving memory\nPeggy Helms\nwho died accidentally\nJune 2, 1987\nDelta, B.C.", "material": "metal", "memorial": "plaque", "name": "Peggy Helms"}}, {"type": "node", "id": 10836229160, "lat": 49.2644546, "lon": -122.5728511, "tags": {"historic": "memorial", "inscription": "John E. Bier\nAbroretum", "memorial": "plaque"}}, {"type": "node", "id": 10836229871, "lat": 49.2640935, "lon": -122.5659297, "tags": {"historic": "memorial", "inscription": "J. Harry G. Smith\nStand Density Trials", "memorial": "plaque"}}, {"type": "node", "id": 10861642330, "lat": 49.2176333, "lon": -122.8927515, "tags": {"historic": "memorial", "memorial": "plaque"}}, {"type": "node", "id": 11071758100, "lat": 49.0473871, "lon": -122.8187614, "tags": {"historic": "memorial", "material": "plastic", "memorial": "plaque", "name": "Dr. Roy Strang"}}, {"type": "node", "id": 11243584578, "lat": 49.2606933, "lon": -122.7790048, "tags": {"historic": "memorial", "inscription": "The corner of Mary Hill Road and Wilson Avenue, where you stand now, has special significance in the history of Port Coquitlam. This site was designated a heritage site on December 9, 1985 by the City of Port Coquitlam and has two claims to fame. (cont.)", "material": "plastic", "memorial": "plaque", "name": "Port Coquitlam Heritage Marker - Rowland Lacrosse Box"}}, {"type": "node", "id": 11252203161, "lat": 49.1794458, "lon": -122.8284116, "tags": {"historic": "memorial", "material": "stone"}}, {"type": "node", "id": 11277454619, "lat": 49.2607202, "lon": -122.778746, "tags": {"historic": "memorial", "inscription": "City of Port Coquitlam Heritage Site Rowland Lacrosse Box Built in 1934", "material": "metal", "memorial": "plaque"}}, {"type": "node", "id": 12143392514, "lat": 49.01818, "lon": -122.6548412, "tags": {"historic": "memorial", "inscription": "Dogwood Rest Area\nThis rest area was dedicated by the Honourable J.R. Ohabot, Minister of Lands, Parks and Housing to celebrate the opening of Campbell Valley Regional Park\nSeptember 30, 1979", "memorial": "plaque"}}, {"type": "node", "id": 12154512069, "lat": 49.2510368, "lon": -122.6129709, "tags": {"historic": "memorial", "inscription": "District of Maple Ridge\nNorth Alouette River Greenway Bridge\nOpened June 25, 2011", "memorial": "plaque"}}, {"type": "node", "id": 12335845059, "lat": 49.0148175, "lon": -122.6541263, "tags": {"direction": "0", "historic": "memorial", "inscription": "Langley, B.C.\nHeritage Site", "memorial": "plaque"}}, {"type": "node", "id": 12394971687, "lat": 49.0092848, "lon": -122.5925598, "tags": {"direction": "225", "historic": "memorial", "inscription": "This tree was planted in honour of Irene Pierce, an ethusiastic naturalist, teacher and equestrian. Her vision and hard work helped save this forest.", "material": "metal", "memorial": "plaque"}}, {"type": "node", "id": 12463628300, "lat": 49.2071319, "lon": -122.9125019, "tags": {"historic": "memorial", "memorial": "plaque"}}, {"type": "node", "id": 12463630220, "lat": 49.2069309, "lon": -122.9122933, "tags": {"historic": "memorial", "memorial": "plaque"}}, {"type": "node", "id": 12513199976, "lat": 49.2221614, "lon": -122.994527, "tags": {"historic": "memorial", "memorial": "obelisk"}}, {"type": "node", "id": 12528716441, "lat": 49.2192932, "lon": -122.6011321, "tags": {"historic": "memorial", "memorial": "war_memorial", "name": "Maple Rdige Cenotaph"}}, {"type": "node", "id": 12694757998, "lat": 49.1683668, "lon": -122.58016, "tags": {"historic": "memorial", "inscription": "HERITAGE TREE\nBig Leaf Maple (Acer macrophyllum)\nThis tree was planted in 1923 in of Jesse Wright who was i action at Vimy Ridge, France Many more commemorative trees, neme now lost, were planted throughout the community in honour of Fallen World War I so", "memorial": "war_memorial", "name": "Wilson Memorial"}}, {"type": "node", "id": 12694789428, "lat": 49.1709223, "lon": -122.5868954, "tags": {"historic": "memorial", "inscription": "HERITAGE TREE\nBig Leaf Maple\n(Acer macrophyllum)\nThis tree was planted in 1923 in honour of Alfred W. Trattle who was killed in action near Vimy Ridge, France, in 1917 Many more commemorative trees, some now lost, were planted throughout the community in", "memorial": "war_memorial", "name": "Trattle Memorial Maple Tree"}}, {"type": "node", "id": 12695067609, "lat": 49.1744832, "lon": -122.7093109, "tags": {"description": "A 300 year old Douglas Fir tree was named \"Charlie's Tree\" after a World War I veteran Charlie Perkins planted ivy at its base and lay wreaths on it to honour his fallen First World War pilot friends. Charlie Perkins, who died in 1986, moved to the Fraser", "historic": "memorial", "memorial": "war_memorial", "name": "Charlie's Tree", "source:website": "https://www.veterans.gc.ca/en/remembrance/memorials/national-inventory-canadian-memorials/details/9404"}}, {"type": "way", "id": 700806620, "nodes": [6581341043, 6581341044, 6581341045, 6581341046, 6581341043], "tags": {"height": "8", "historic": "memorial", "material": "stone", "memorial": "war_memorial", "name": "White Rock Community Cenotaph", "start_date": "1967"}}, {"type": "way", "id": 790899984, "nodes": [7393739789, 7393739790, 7393739791, 7393739792, 7393739793, 7393739794, 7393739795, 7393739796, 7393739789], "tags": {"historic": "memorial", "leisure": "garden", "memorial": "plaque", "name": "Friendship Garden", "start_date": "2002 Mar 21"}}, {"type": "way", "id": 875372922, "nodes": [8147983919, 8147983920, 8147983921, 8147983922, 8147983919], "tags": {"historic": "memorial", "material": "stone", "memorial": "war_memorial", "name": "Surrey Cenotaph"}}, {"type": "way", "id": 1039928195, "nodes": [9575778892, 9575778896, 9575778919, 9575778877, 9575778889, 9575778846, 9575559282, 9575778922, 9575778911, 9575778913, 9575778894, 9575778892], "tags": {"alt_name": "David's Grove", "historic": "memorial", "leisure": "garden", "memorial": "garden", "name": "David Truman Memorial Bird Garden"}}]}