{"version": 0.6, "generator": "Overpass API 0.7.62.5 1bd436f1", "osm3s": {"timestamp_osm_base": "2025-04-04T23:55:15Z", "copyright": "The data included in this document is from www.openstreetmap.org. The data is made available under ODbL."}, "elements": [{"type": "node", "id": 2598929154, "lat": 49.3800114, "lon": -123.331357}, {"type": "node", "id": 2598929157, "lat": 49.380046, "lon": -123.3312906}, {"type": "node", "id": 2598929158, "lat": 49.3800578, "lon": -123.331414}, {"type": "node", "id": 2598929160, "lat": 49.3800924, "lon": -123.3313476}, {"type": "node", "id": 2598929164, "lat": 49.3801479, "lon": -123.3311655}, {"type": "node", "id": 2598929167, "lat": 49.3801809, "lon": -123.3312404}, {"type": "node", "id": 2598929168, "lat": 49.3801899, "lon": -123.3311219}, {"type": "node", "id": 2598929170, "lat": 49.3802229, "lon": -123.3311968}, {"type": "node", "id": 2598946985, "lat": 49.3794405, "lon": -123.3342385}, {"type": "node", "id": 2598946989, "lat": 49.3794667, "lon": -123.3340973}, {"type": "node", "id": 2598947004, "lat": 49.3795503, "lon": -123.3342866}, {"type": "node", "id": 2598960102, "lat": 49.3792795, "lon": -123.3345048}, {"type": "node", "id": 2598960104, "lat": 49.3792932, "lon": -123.3344045}, {"type": "node", "id": 2598960106, "lat": 49.3794243, "lon": -123.334552}, {"type": "node", "id": 2598960107, "lat": 49.379439, "lon": -123.3344512}, {"type": "node", "id": 2598960111, "lat": 49.3794353, "lon": -123.3344767}, {"type": "node", "id": 5165662511, "lat": 49.3794658, "lon": -123.3355263, "tags": {"addr:city": "Bowen Island", "addr:housenumber": "451", "addr:province": "BC", "addr:street": "Bowen Island Trunk Road", "amenity": "restaurant", "cuisine": "italian", "name": "Tuscany Restaurant", "opening_hours": "We-Su 17:00-20:00"}}, {"type": "node", "id": 5166639417, "lat": 49.3795765, "lon": -123.3341454}, {"type": "node", "id": 5168206279, "lat": 49.3794252, "lon": -123.337772, "tags": {"addr:city": "Bowen Island", "addr:housenumber": "479", "addr:street": "Bowen Island Trunk Road", "amenity": "pub", "name": "Bowen Island Pub", "outdoor_seating": "yes", "smoking": "no"}}, {"type": "node", "id": 7050177605, "lat": 49.3791266, "lon": -123.338625, "tags": {"addr:city": "Bowen Island", "addr:housenumber": "994", "addr:street": "Dorman Road", "addr:unit": "202", "amenity": "restaurant", "cuisine": "sushi", "name": "Bowen Sushi"}}, {"type": "node", "id": 9294226343, "lat": 49.3801888, "lon": -123.3444538, "tags": {"addr:city": "Bowen Island", "addr:housenumber": "539", "addr:province": "BC", "addr:street": "Artisan Lane", "amenity": "restaurant", "cuisine": "coffee_shop;breakfast", "diet:meat": "yes", "diet:vegan": "yes", "diet:vegetarian": "yes", "hot_water": "yes", "internet_access": "wlan", "internet_access:fee": "customers", "internet_access:password": "Flourandwater", "internet_access:ssid": "AE Guest 19", "name": "Artisan Eats Caf\u00e9 & Fine Foods", "opening_hours": "We-Su 09:00-16:00", "outdoor_seating": "yes", "phone": "+1-604-947-0190", "toilets": "yes", "toilets:access": "customers", "toilets:disposal": "flush", "toilets:fee": "no", "toilets:handwashing": "yes", "toilets:position": "seated", "toilets:wheelchair": "no", "website": "https://www.artisaneats.ca/"}}, {"type": "node", "id": 9295132835, "lat": 49.3795073, "lon": -123.334536, "tags": {"addr:city": "Bowen Island", "addr:housenumber": "439", "addr:province": "BC", "addr:street": "Bowen Island Trunk Road", "amenity": "restaurant", "name": "Doc Morgan's Pub & Restaurant", "phone": "+1-604-947-0808"}}, {"type": "node", "id": 9908573718, "lat": 49.3794887, "lon": -123.3353803, "tags": {"addr:city": "Bowen Island", "addr:housenumber": "449", "addr:province": "BC", "addr:street": "Bowen Island Trunk Road", "amenity": "restaurant", "cuisine": "spanish", "name": "Barcelona Tapas & Wine Bar", "website": "https://btwb.ca/"}}, {"type": "node", "id": 11033586152, "lat": 49.3412464, "lon": -123.3597665, "tags": {"addr:housenumber": "810", "addr:street": "Beach Drive", "amenity": "restaurant", "cuisine": "american", "name": "The Shed Eatery", "phone": "+16049474653", "website": "https://www.bowengolf.com/the-shed-eatery"}}, {"type": "way", "id": 254061610, "nodes": [2598929158, 2598929160, 2598929157, 2598929154, 2598929158], "tags": {"addr:city": "Bowen Island", "addr:housenumber": "400", "addr:province": "BC", "addr:street": "Bowen Island Trunk Road", "amenity": "restaurant", "building": "yes", "cuisine": "mexican;ice_cream", "diet:vegan": "yes", "diet:vegetarian": "yes", "name": "Branch on Bowen", "outdoor_seating": "yes", "phone": "+17788659294", "website": "https://www.branchonbowen.com/"}}, {"type": "way", "id": 254061611, "nodes": [2598929164, 2598929167, 2598929170, 2598929168, 2598929164], "tags": {"amenity": "restaurant", "building": "yes", "cuisine": "pie", "name": "Lime and Moon Pie Company", "website": "https://www.limeandmoon.com/"}}, {"type": "way", "id": 254063645, "nodes": [5166639417, 2598946989, 2598946985, 2598947004, 5166639417], "tags": {"addr:city": "Bowen Island", "addr:housenumber": "433", "addr:postcode": "V0N 1G0", "addr:province": "BC", "addr:street": "Bowen Island Trunk Road", "amenity": "restaurant", "building": "yes", "cuisine": "breakfast", "delivery": "no", "email": "info@tippys.ca", "facebook": "https://www.facebook.com/profile.php?id=61552999447562", "instagram": "https://www.instagram.com/tippysonbowen/", "name": "Tippy's Cookhouse", "opening_hours": "Mo-Fr 07:30-16:00; Sa-Su 09:00-16:00", "outdoor_seating": "yes", "phone": "+1-236\u2219357\u22192030", "start_date": "2024-04-17", "website": "http://www.tippys.ca/"}}, {"type": "way", "id": 254064432, "nodes": [2598960106, 2598960111, 2598960107, 2598960104, 2598960102, 2598960106], "tags": {"addr:city": "Bowen Island", "addr:housenumber": "437", "addr:street": "Bowen Island Trunk Road", "amenity": "pub", "building": "yes", "name": "Doc Morgan's", "opening_hours": "Mo-Fr 11:30-21:00; Sa,Su 11:30-22:00", "phone": "+1-604-947-0808", "website": "http://www.docmorgans.com/"}}]}