{"version": 0.6, "generator": "Overpass API 0.7.62.5 1bd436f1", "osm3s": {"timestamp_osm_base": "2025-04-11T22:09:23Z", "copyright": "The data included in this document is from www.openstreetmap.org. The data is made available under ODbL."}, "elements": [{"type": "node", "id": 648735254, "lat": 49.2893606, "lon": -123.1176596, "tags": {"description": "2010 Olympic Flame Cauldron", "height": "10", "historic": "monument", "name": "2010 Olympic Cauldron", "tourism": "attraction", "wheelchair": "yes"}}, {"type": "node", "id": 1178757953, "lat": 49.302661, "lon": -123.1265235, "tags": {"access": "yes", "historic": "monument", "material": "fiberglass", "name": "Empress of Japan Figurehead", "start_date": "1960", "wikipedia": "en:RMS Empress of Japan (1890)#Salvage"}}, {"type": "node", "id": 3677399686, "lat": 49.2977049, "lon": -123.1347748, "tags": {"artwork_type": "statue", "direction": "200", "historic": "monument", "name": "Lord Stanley Statue", "subject": "Frederick Stanley, 16th Earl of Derby", "subject:wikidata": "Q222458"}}, {"type": "node", "id": 3677408841, "lat": 49.2971819, "lon": -123.1346487, "tags": {"artwork_type": "statue", "direction": "175", "historic": "monument", "name": "Robert Burns Statue", "subject": "Robert Burns", "subject:wikidata": "Q81960"}}, {"type": "node", "id": 3710701589, "lat": 49.3025493, "lon": -123.130486, "tags": {"historic": "monument", "material": "wood", "name": "Lumberman's Arch"}}, {"type": "node", "id": 5195943221, "lat": 49.3833868, "lon": -123.2489155, "tags": {"historic": "monument", "name": "Rock Pile", "name:en": "Rock Pile"}}, {"type": "node", "id": 6742229325, "lat": 49.4056342, "lon": -123.195154, "tags": {"description": "This is the memorial for the crash site of a Royal Canadian Navy T-33 Silver Star.  There are various pieces of wreckage in the immediate vicinity which should not be removed as they are part of the memorial.", "historic": "monument", "inscription": "This memorial marks the the site of the crash of a Royal Canadian Navy Jet (T-33 Silver Star) which killed both pilots on 23rd November, 1963", "name": "T33 Aircraft Crash Site Memorial"}}, {"type": "node", "id": 7525235045, "lat": 49.2983082, "lon": -123.1197487}, {"type": "node", "id": 7525235046, "lat": 49.2983065, "lon": -123.1197338}, {"type": "node", "id": 7525235047, "lat": 49.2982788, "lon": -123.1197415}, {"type": "node", "id": 7525235048, "lat": 49.2982806, "lon": -123.1197564}, {"type": "node", "id": 9075267310, "lat": 49.3133233, "lon": -123.1428711, "tags": {"access": "yes", "description": "Monument for the SS Beaver shipwreck", "historic": "monument", "image": "https://upload.wikimedia.org/wikipedia/commons/4/4e/SSBeaver_Plaque.jpg", "subject:wikidata": "Q4877985"}}, {"type": "node", "id": 11421601875, "lat": 49.3453825, "lon": -123.0985487, "tags": {"description": "A bridge with whimsical figurines on it", "historic": "monument", "inscription": "The Fairy Bridge", "name": "The Fairy Bridge"}}, {"type": "node", "id": 12727025711, "lat": 49.3402185, "lon": -123.1973154, "tags": {"access": "yes", "board_type": "history", "historic": "monument", "inscription": "Daring and innovative, this house captures the spirit of early Modern architecture in Canada. Conceived by renowned painter Bertram Charles Binning in 1941, it responded to the social and economic conditions of the time by using local materials and effici", "name": "Binning Residence", "operator": "Parks Canada", "source:website": "https://www.pc.gc.ca/apps/DFHD/page_nhs_eng.aspx?id=1832"}}, {"type": "node", "id": 12727090905, "lat": 49.3319567, "lon": -123.2635273, "tags": {"access": "yes", "historic": "monument", "inscription": "This lighthouse replaced an 1875 building of which the foundations of the keeper's dwelling survive. Built in 1912 by contractor W.H. Rourke, the hexagonal reinforced concrete tower, 18.3 metres high, is an early example of this design. The exterior buttr", "name": "Point Atkinson Lighthouse", "operator": "Parks Canada", "source:website": "https://www.pc.gc.ca/apps/dfhd/page_nhs_eng.aspx?id=87"}}, {"type": "way", "id": 804532592, "nodes": [7525235045, 7525235046, 7525235047, 7525235048, 7525235045], "tags": {"height": "1", "historic": "monument", "material": "stone", "name": "Hallelujah Point Monument", "wall": "stone"}}]}