{"version": 0.6, "generator": "Overpass API 0.7.62.5 1bd436f1", "osm3s": {"timestamp_osm_base": "2025-04-11T22:33:44Z", "copyright": "The data included in this document is from www.openstreetmap.org. The data is made available under ODbL."}, "elements": [{"type": "node", "id": 247688308, "lat": 49.2777533, "lon": -123.1449485, "tags": {"artist_name": "Michael Zheng", "name": "The Stop", "ref": "2", "tourism": "artwork"}}, {"type": "node", "id": 648527819, "lat": 49.2843057, "lon": -123.143728, "tags": {"artist_name": "Alvin Kanak", "artwork_type": "sculpture", "height": "6", "material": "granite", "name": "Inukshuk", "note": "This ancient symbol of the Inuit culture is traditionally used as a landmark and navigational aid and also represents northern hospitality and friendship. Constructed of grey granite by Alvin Kanak of Rankin Inlet, this monument was commissioned by the Go", "start_date": "1986", "tourism": "artwork", "website": "https://covapp.vancouver.ca/PublicArtRegistry/ArtworkDetail.aspx?FromArtworkSearch=True&ArtworkId=172"}}, {"type": "node", "id": 833617462, "lat": 49.2832178, "lon": -123.120566, "tags": {"artwork_type": "installation", "name": "Four Boats Stranded", "tourism": "artwork"}}, {"type": "node", "id": 833617467, "lat": 49.2828278, "lon": -123.119971, "tags": {"artwork_type": "installation", "name": "Four Boats Stranded", "tourism": "artwork"}}, {"type": "node", "id": 833617468, "lat": 49.2826194, "lon": -123.120281, "tags": {"artwork_type": "installation", "name": "Four Boats Stranded", "tourism": "artwork"}}, {"type": "node", "id": 946238788, "lat": 49.271391, "lon": -123.1062216, "tags": {"artist_name": "Myfanwy MacLeod", "artwork_type": "sculpture", "name": "The Birds", "note": "Giant Sparrows", "tourism": "artwork"}}, {"type": "node", "id": 1002954925, "lat": 49.2760449, "lon": -123.144556, "tags": {"artist_name": "George A. Norris", "artwork_type": "sculpture", "material": "stainless steel", "name": "The Crab", "start_date": "1968", "tourism": "artwork", "website": "https://covapp.vancouver.ca/PublicArtRegistry/ArtworkDetail.aspx?ArtworkId=108", "wheelchair": "yes"}}, {"type": "node", "id": 1209779667, "lat": 49.2796833, "lon": -123.1234553}, {"type": "node", "id": 1241180191, "lat": 49.2591226, "lon": -123.2475037}, {"type": "node", "id": 1241180195, "lat": 49.2591221, "lon": -123.2473712}, {"type": "node", "id": 1241180197, "lat": 49.259046, "lon": -123.2473634}, {"type": "node", "id": 1241180200, "lat": 49.2590606, "lon": -123.247354}, {"type": "node", "id": 1241180202, "lat": 49.2590423, "lon": -123.2474333}, {"type": "node", "id": 1241180204, "lat": 49.2591483, "lon": -123.2474853}, {"type": "node", "id": 1241180209, "lat": 49.2591533, "lon": -123.2474258}, {"type": "node", "id": 1241180214, "lat": 49.2591106, "lon": -123.2475034}, {"type": "node", "id": 1241180218, "lat": 49.2591334, "lon": -123.247383}, {"type": "node", "id": 1241180220, "lat": 49.2591419, "lon": -123.2474943}, {"type": "node", "id": 1241180224, "lat": 49.2590896, "lon": -123.2473534}, {"type": "node", "id": 1241180226, "lat": 49.2590386, "lon": -123.2473983}, {"type": "node", "id": 1241180230, "lat": 49.2590582, "lon": -123.2474664}, {"type": "node", "id": 1241180233, "lat": 49.2591561, "lon": -123.2474567}, {"type": "node", "id": 1241180241, "lat": 49.2590835, "lon": -123.2474925}, {"type": "node", "id": 1497978865, "lat": 49.2830107, "lon": -123.120891, "tags": {"artwork_type": "installation", "name": "Four Boats Stranded", "tourism": "artwork"}}, {"type": "node", "id": 1753577700, "lat": 49.2678288, "lon": -123.1010309, "tags": {"name": "Vivo Media Arts Centre", "source": "survey", "tourism": "artwork"}}, {"type": "node", "id": 2321391120, "lat": 49.273232, "lon": -123.1025401, "tags": {"description": "kinetic sculpture", "name": "Tower of Bauble", "source": "survey", "tourism": "artwork"}}, {"type": "node", "id": 3025862205, "lat": 49.2637342, "lon": -123.0968372, "tags": {"artist_name": "Viktor Briestensky", "name": "Dude Chilling Park sign", "tourism": "artwork", "wikidata": "Q16967365", "wikipedia": "en:Dude Chilling Park"}}, {"type": "node", "id": 3025862206, "lat": 49.263842, "lon": -123.0961492, "tags": {"artist_name": "Michael Dennis", "artwork_type": "sculpture", "name": "Reclining Figure", "tourism": "artwork"}}, {"type": "node", "id": 3148586029, "lat": 49.1976912, "lon": -123.1739076, "tags": {"artwork_type": "sculpture", "description": "A British Columbia Coastal Experience", "level": "2", "name": "Pacific Passage", "name:en": "Pacific Passage", "name:fr": "Passage Pacifique", "tourism": "artwork", "website": "https://www.yvr.ca/en/about-yvr/art/the-pacific-passage"}}, {"type": "node", "id": 3148592029, "lat": 49.1972777, "lon": -123.1771105, "tags": {"name": "Flight (Spindle Whorl)", "note": "Lev 2", "tourism": "artwork"}}, {"type": "node", "id": 3355430522, "lat": 49.2821685, "lon": -123.1411376, "tags": {"artist_name": "Dennis Oppenheim", "artwork_type": "sculpture", "material": "aluminum, steel, plexiglass", "name": "Engagement", "tourism": "artwork", "website": "https://www.vancouverbiennale.com/artworks/engagement/", "wikidata": "Q5377412", "wikipedia": "en:Engagement (sculpture)"}}, {"type": "node", "id": 3595443321, "lat": 49.2620491, "lon": -123.120905, "tags": {"artwork_type": "statue", "memorial": "statue", "name": "Rick Hansen", "subject:wikidata": "Q978803", "tourism": "artwork"}}, {"type": "node", "id": 3667998243, "lat": 49.2855491, "lon": -123.142403, "tags": {"artist_name": "Charles Marega", "artwork_type": "sculpture", "inscription": "This Fountain\nErected by the citizens and children, co-operating with the Kiwanis Club of Vancouver, commemorates the life and deeds of Joe Fortes, for many years the guardian of this beach.\n\n~ Little Children Loved Him.\n\nA.D. 1927", "memorial": "fountain", "name": "Joe Fortes Drinking Fountain", "start_date": "1927", "tourism": "artwork", "website": "https://covapp.vancouver.ca/PublicArtRegistry/ArtworkDetail.aspx?FromArtworkSearch=False&ArtworkId=163", "website_2": "http://www.waymarking.com/waymarks/WM9GYR_Joe_Fortes_Fountain_Vancouver_BC", "wheelchair": "limited"}}, {"type": "node", "id": 3672727518, "lat": 49.2719249, "lon": -123.1098097, "tags": {"artist_name": "Jonathan Borofsky", "artwork_type": "sculpture", "name": "Human Structures Vancouver", "source": "http://www.vancouverbiennale.com/artworks/human-structures-vancouver/", "tourism": "artwork"}}, {"type": "node", "id": 3716138581, "lat": 49.2718982, "lon": -123.1245816}, {"type": "node", "id": 3716138583, "lat": 49.2718507, "lon": -123.1246245}, {"type": "node", "id": 3716138584, "lat": 49.2718574, "lon": -123.124605}, {"type": "node", "id": 3716138585, "lat": 49.2718518, "lon": -123.1236469}, {"type": "node", "id": 3716138586, "lat": 49.271917, "lon": -123.1246919}, {"type": "node", "id": 3716138587, "lat": 49.2718596, "lon": -123.1246864}, {"type": "node", "id": 3716138588, "lat": 49.2719116, "lon": -123.1245896}, {"type": "node", "id": 3716138589, "lat": 49.2717733, "lon": -123.1235809}, {"type": "node", "id": 3716138590, "lat": 49.2718104, "lon": -123.1235496}, {"type": "node", "id": 3716138591, "lat": 49.2719293, "lon": -123.1246234}, {"type": "node", "id": 3716138592, "lat": 49.2718763, "lon": -123.1247035}, {"type": "node", "id": 3716138593, "lat": 49.271843, "lon": -123.1236666}, {"type": "node", "id": 3716138594, "lat": 49.2718557, "lon": -123.1236238}, {"type": "node", "id": 3716138595, "lat": 49.2718394, "lon": -123.1235652}, {"type": "node", "id": 3716138596, "lat": 49.2718519, "lon": -123.1246678}, {"type": "node", "id": 3716138597, "lat": 49.2717672, "lon": -123.1236029}, {"type": "node", "id": 3716138598, "lat": 49.2719309, "lon": -123.1246541}, {"type": "node", "id": 3716138599, "lat": 49.2718258, "lon": -123.1235535}, {"type": "node", "id": 3716138600, "lat": 49.2719224, "lon": -123.1246041}, {"type": "node", "id": 3716138601, "lat": 49.2719261, "lon": -123.1246749}, {"type": "node", "id": 3716138602, "lat": 49.2718496, "lon": -123.1235833}, {"type": "node", "id": 3716138603, "lat": 49.2718703, "lon": -123.1245881}, {"type": "node", "id": 3716138604, "lat": 49.2718488, "lon": -123.1246463}, {"type": "node", "id": 3716138605, "lat": 49.2718905, "lon": -123.1247071}, {"type": "node", "id": 3716138606, "lat": 49.2717803, "lon": -123.1236687}, {"type": "node", "id": 3716138607, "lat": 49.2717709, "lon": -123.1236496}, {"type": "node", "id": 3716138608, "lat": 49.2717817, "lon": -123.1235662}, {"type": "node", "id": 3716138609, "lat": 49.2718551, "lon": -123.1236057}, {"type": "node", "id": 3716138610, "lat": 49.2717664, "lon": -123.1236267}, {"type": "node", "id": 3716138611, "lat": 49.2719046, "lon": -123.124703}, {"type": "node", "id": 3716138612, "lat": 49.2718153, "lon": -123.1236869}, {"type": "node", "id": 3716138613, "lat": 49.2717998, "lon": -123.1236851}, {"type": "node", "id": 3716138614, "lat": 49.2718839, "lon": -123.1245811}, {"type": "node", "id": 3716138615, "lat": 49.2717951, "lon": -123.123554}, {"type": "node", "id": 3716138616, "lat": 49.2718303, "lon": -123.1236805}, {"type": "node", "id": 3720510535, "lat": 49.2740164, "lon": -123.099221}, {"type": "node", "id": 3720510886, "lat": 49.2741388, "lon": -123.0989883}, {"type": "node", "id": 3720510887, "lat": 49.2739324, "lon": -123.0991796}, {"type": "node", "id": 3720511050, "lat": 49.2740603, "lon": -123.0992065}, {"type": "node", "id": 3720518088, "lat": 49.2740679, "lon": -123.0988448}, {"type": "node", "id": 3720518089, "lat": 49.2739022, "lon": -123.0991287}, {"type": "node", "id": 3720520688, "lat": 49.2741395, "lon": -123.0990503}, {"type": "node", "id": 3720521073, "lat": 49.2741011, "lon": -123.0988803}, {"type": "node", "id": 3720521074, "lat": 49.2740291, "lon": -123.0988269}, {"type": "node", "id": 3720521075, "lat": 49.2739887, "lon": -123.0988282}, {"type": "node", "id": 3720521076, "lat": 49.2738853, "lon": -123.0990651}, {"type": "node", "id": 3720521077, "lat": 49.273972, "lon": -123.0992116}, {"type": "node", "id": 3720521387, "lat": 49.2741255, "lon": -123.0989297}, {"type": "node", "id": 3720521388, "lat": 49.2738835, "lon": -123.0989964}, {"type": "node", "id": 3725442520, "lat": 49.2816804, "lon": -123.1130024, "tags": {"artist_name": "Tony Bloom", "artwork_type": "sculpture", "name": "Water Work", "tourism": "artwork"}}, {"type": "node", "id": 3725455228, "lat": 49.2812618, "lon": -123.1158358, "tags": {"artist_name": "Joseph Farard", "artwork_type": "sculpture", "material": "bronze", "name": "Royal Sweet Diamond", "tourism": "artwork"}}, {"type": "node", "id": 3789883478, "lat": 49.2819517, "lon": -123.1103265, "tags": {"art_registry:website": "https://covapp.vancouver.ca/PublicArtRegistry//ArtworkDetail.aspx?FromArtworkSearch=False&ArtworkId=63", "artist_name": "Gerhard Class", "artwork_type": "sculpture", "material": "aluminium", "name": "Province Newspaper Memorial", "start_date": "1967", "tourism": "artwork"}}, {"type": "node", "id": 3819842667, "lat": 49.2781334, "lon": -123.1449681, "tags": {"artist_name": "Alan Chun Hung", "name": "Gate to the Northwest Passage", "tourism": "artwork", "wikidata": "Q14874600", "wikipedia": "en:Gate to the Northwest Passage"}}, {"type": "node", "id": 3938298333, "lat": 49.2731149, "lon": -123.0996959, "tags": {"artist_name": "Rhonda Weppler, Trevor Mahovsky", "artwork_type": "statue", "description": "commissioned by Translink", "material": "bronze", "name": "The Watch Seller", "start_date": "2014", "tourism": "artwork"}}, {"type": "node", "id": 4000204824, "lat": 49.2800083, "lon": -123.1138813, "tags": {"name": "Mind Crystal", "tourism": "artwork", "website": "https://covapp.vancouver.ca/PublicArtRegistry/ArtworkDetail.aspx?ArtworkId=528"}}, {"type": "node", "id": 4041208059, "lat": 49.2739505, "lon": -123.0988486}, {"type": "node", "id": 4041208060, "lat": 49.2739182, "lon": -123.0988861}, {"type": "node", "id": 4041208061, "lat": 49.2738952, "lon": -123.098937}, {"type": "node", "id": 4041208062, "lat": 49.2740982, "lon": -123.0991699}, {"type": "node", "id": 4041208063, "lat": 49.2741258, "lon": -123.0991157}, {"type": "node", "id": 4091991989, "lat": 49.2687969, "lon": -123.1344126, "tags": {"artwork_type": "sculpture", "tourism": "artwork"}}, {"type": "node", "id": 4139134614, "lat": 49.2784847, "lon": -123.1440906}, {"type": "node", "id": 4139134615, "lat": 49.2784051, "lon": -123.1441401}, {"type": "node", "id": 4139134616, "lat": 49.2783889, "lon": -123.144057}, {"type": "node", "id": 4139134617, "lat": 49.2784039, "lon": -123.1439473}, {"type": "node", "id": 4139134618, "lat": 49.2783877, "lon": -123.1438163}, {"type": "node", "id": 4139134619, "lat": 49.2783924, "lon": -123.1437154}, {"type": "node", "id": 4139134620, "lat": 49.2784027, "lon": -123.1436818}, {"type": "node", "id": 4139134621, "lat": 49.2784547, "lon": -123.143657}, {"type": "node", "id": 4139134622, "lat": 49.2784674, "lon": -123.1437048}, {"type": "node", "id": 4139134623, "lat": 49.2784836, "lon": -123.1438588}, {"type": "node", "id": 4139134624, "lat": 49.2784859, "lon": -123.1439809}, {"type": "node", "id": 4249459112, "lat": 49.2690804, "lon": -123.2572659, "tags": {"artist_name": "Glenn Lewis", "artwork_type": "sculpture", "material": "marble", "name": "Classical Toy Boat", "start_date": "1987", "tourism": "artwork"}}, {"type": "node", "id": 4343692187, "lat": 49.2653777, "lon": -123.2511237, "tags": {"artist_name": "Brent Sparrow Jr.", "artwork_type": "carving", "material": "wood", "name": "Musqueam Post", "tourism": "artwork"}}, {"type": "node", "id": 4349329289, "lat": 49.2730765, "lon": -123.1026066, "tags": {"name": "Solar Bike Tree", "tourism": "artwork"}}, {"type": "node", "id": 4386255548, "lat": 49.2761258, "lon": -123.1022741, "tags": {"artist_name": "Marcus Bowcott", "artwork_type": "sculpture", "description": "It is composed of five real scrap cars stacked upon an old growth cedar tree. The artwork considers our consumer \u201cout with the old, in with the new\u201d culture in relation to the site, its history, and Vancouver\u2019s evolving identity.", "material": "wood;stone", "name": "Trans Am Totem", "tourism": "artwork", "website": "https://www.vancouverbiennale.com/artworks/trans-am-totem/", "wikidata": "Q20818771", "wikipedia": "en:Trans Am Totem"}}, {"type": "node", "id": 4392917226, "lat": 49.2730233, "lon": -123.1198274, "tags": {"artwork_type": "sculpture", "material": "metal", "tourism": "artwork"}}, {"type": "node", "id": 4447090200, "lat": 49.1974551, "lon": -123.1396466, "tags": {"artist_name": "Michael Nicoll Yahgulanaas", "artwork_type": "sculpture", "name": "SEI", "tourism": "artwork", "website": "https://www.straight.com/arts/470511/exclusive-sneak-peek-michael-nicoll-yahgulanaas-latest-work-mcarthurglen-designer-outlet"}}, {"type": "node", "id": 4562113393, "lat": 49.194343, "lon": -123.181543, "tags": {"artist_name": "Reg Davidson", "name": "The Raven", "name:en": "The Raven", "name:fr": "Le Corbeau", "start_date": "2015", "tourism": "artwork", "wheelchair": "yes"}}, {"type": "node", "id": 4583453790, "lat": 49.1943305, "lon": -123.1792622, "tags": {"artist_name": "Susan A. Point", "name": "Cedar Connection", "name:en": "Cedar Connection", "name:fr": "Le lien de c\u00e8dre", "start_date": "2009", "tourism": "artwork", "wheelchair": "yes"}}, {"type": "node", "id": 4607342092, "lat": 49.1943628, "lon": -123.1803571, "tags": {"artist_name": "Don Yeomans", "artwork_type": "totem_pole", "height": "12", "material": "wood;paint", "name": "Celebrating Flight", "start_date": "2009", "tourism": "artwork", "wheelchair": "yes"}}, {"type": "node", "id": 4607349989, "lat": 49.1944225, "lon": -123.1816839, "tags": {"tourism": "artwork", "wheelchair": "yes"}}, {"type": "node", "id": 4640543090, "lat": 49.195722, "lon": -123.1847371, "tags": {"name:vi": "s\u00e2n bay Vancouver", "tourism": "artwork", "wheelchair": "yes"}}, {"type": "node", "id": 4655275290, "lat": 49.1973504, "lon": -123.1781431, "tags": {"artist_name": "Dempsey Bob", "name": "The Story of Fog Woman and Raven", "name:en": "The Story of Fog Woman and Raven", "name:fr": "L'histoire de Dame brouillard et de Corbeau", "start_date": "2007", "tourism": "artwork"}}, {"type": "node", "id": 4672352391, "lat": 49.2654348, "lon": -123.0776545, "tags": {"artist:wikidata": "Q2583093", "artist_name": "Ken Lum", "artwork_type": "sculpture", "name": "East Van Cross", "official_name": "Monument for East Vancouver", "start_date": "2010", "subject:wikidata": "Q19877634", "subject:wikipedia": "en:East Van Cross", "tourism": "artwork", "wikidata": "Q106635032"}}, {"type": "node", "id": 4684077148, "lat": 49.2794172, "lon": -123.1052268, "tags": {"artwork_type": "sculpture", "name": "Abacus", "tourism": "artwork"}}, {"type": "node", "id": 4684081418, "lat": 49.2798515, "lon": -123.108462, "tags": {"artwork_type": "sculpture", "description": "Globe", "historic": "monument", "inscription": "International Village", "name": "International Village Globe", "tourism": "artwork"}}, {"type": "node", "id": 4693751861, "lat": 49.2548901, "lon": -123.1012195, "tags": {"artist_name": "Gisele Amantea", "name": "Momento (Poodle)", "tourism": "artwork"}}, {"type": "node", "id": 4693771775, "lat": 49.2486548, "lon": -123.0732056, "tags": {"artist_name": "Sam Carter", "artwork_type": "sculpture", "name": "Flower Totems", "tourism": "artwork"}}, {"type": "node", "id": 4693777889, "lat": 49.2491637, "lon": -123.0753936, "tags": {"artist_name": "Tom Dean", "artwork_type": "sculpture", "name": "Peaceable Kingdom", "tourism": "artwork"}}, {"type": "node", "id": 4731553439, "lat": 49.280133, "lon": -123.1072141, "tags": {"name": "Chilliwack Antique House", "name:en": "Chilliwack Antique House", "tourism": "artwork"}}, {"type": "node", "id": 4731553450, "lat": 49.2804954, "lon": -123.1063998, "tags": {"name": "Iag", "name:en": "Iag", "tourism": "artwork"}}, {"type": "node", "id": 4785477821, "lat": 49.2852406, "lon": -123.1342018, "tags": {"name": "Triumph of the Technocrat", "name:en": "Triumph of the Technocrat", "tourism": "artwork"}}, {"type": "node", "id": 4826375621, "lat": 49.2769886, "lon": -123.1350036, "tags": {"name": "The Swimmer", "name:en": "The Swimmer", "tourism": "artwork"}}, {"type": "node", "id": 4921449622, "lat": 49.271031, "lon": -123.2498572, "tags": {"name": "Maltese Labyrinth", "name:en": "Maltese Labyrinth", "tourism": "artwork"}}, {"type": "node", "id": 4976526621, "lat": 49.285907, "lon": -123.1231115, "tags": {"artist_name": "Abraham Anghik", "name": "Spirits In A Landscape", "name:en": "Spirits In A Landscape", "start_date": "1992", "tourism": "artwork"}}, {"type": "node", "id": 5041553422, "lat": 49.2805672, "lon": -123.1258144, "tags": {"artist_name": "Judi Young", "name": "Requiem for Yan", "name:en": "Requiem for Yan", "tourism": "artwork"}}, {"type": "node", "id": 5125112022, "lat": 49.2607438, "lon": -123.1143694, "tags": {"artwork_type": "sculpture", "material": "metal", "start_date": "2015", "tourism": "artwork"}}, {"type": "node", "id": 5134184721, "lat": 49.282658, "lon": -123.1099763, "tags": {"name": "Vancouver Corner", "tourism": "artwork"}}, {"type": "node", "id": 5140148166, "lat": 49.2616112, "lon": -123.1140507, "tags": {"artist_name": "Ina Trudgeon", "artwork_type": "stone", "name": "Sounds We No Longer Hear", "start_date": "2000", "tourism": "artwork"}}, {"type": "node", "id": 5145513324, "lat": 49.2821372, "lon": -123.1107337, "tags": {"name": "The Great Fire", "tourism": "artwork"}}, {"type": "node", "id": 5148208621, "lat": 49.2832215, "lon": -123.120676, "tags": {"artist_name": "Charles Marega", "artwork_type": "sculpture", "material": "concrete;bronze;ceramic", "name": "King Edward VII Fountain", "start_date": "1912", "tourism": "artwork", "website": "https://covapp.vancouver.ca/PublicArtRegistry/ArtworkDetail.aspx?FromArtworkSearch=True&ArtworkId=45"}}, {"type": "node", "id": 5167654922, "lat": 49.2824778, "lon": -123.120738, "tags": {"artwork_type": "statue", "material": "bronze", "name": "Bird of Spring", "start_date": "1979", "tourism": "artwork", "website": "https://covapp.vancouver.ca/PublicArtRegistry/ArtworkDetail.aspx?FromArtworkSearch=True&ArtworkId=77"}}, {"type": "node", "id": 5168262321, "lat": 49.2845787, "lon": -123.1292931, "tags": {"artist_name": "Me Jane", "name": "The Four Elements", "start_date": "2006", "tourism": "artwork"}}, {"type": "node", "id": 5173332722, "lat": 49.2808714, "lon": -123.11245, "tags": {"artist_name": "Frank Perry", "artwork_type": "sculpture", "name": "Florentine Door & Wall No 3", "start_date": "1967", "tourism": "artwork", "website": "https://covapp.vancouver.ca/PublicArtRegistry/ArtworkDetail.aspx?FromArtworkSearch=True&ArtworkId=39"}}, {"type": "node", "id": 5184319021, "lat": 49.2827136, "lon": -123.1097142, "tags": {"name": "Phoenix", "tourism": "artwork"}}, {"type": "node", "id": 5247717495, "lat": 49.242617, "lon": -123.1160921, "tags": {"alt_name": "Love Locks", "artist_name": "Bruce Voyce", "artwork_type": "sculpture", "material": "metal", "name": "Love in the Rain", "start_date": "2016", "tourism": "artwork"}}, {"type": "node", "id": 5249850221, "lat": 49.2853611, "lon": -123.1200364, "tags": {"artist_name": "Joyce McDonald", "artwork_type": "sculpture", "name": "Builders", "start_date": "1986", "tourism": "artwork"}}, {"type": "node", "id": 5326062864, "lat": 49.266028, "lon": -123.1153878, "tags": {"name": "Centennial Rocket", "tourism": "artwork"}}, {"type": "node", "id": 5410296636, "lat": 49.2382851, "lon": -123.1338585, "tags": {"name": "The throne of Nezahualcoyotl", "tourism": "artwork"}}, {"type": "node", "id": 5577473651, "lat": 49.1935639, "lon": -123.1802861, "tags": {"level": "-1", "name": "Supernatural World: The Sea, The Land and The Sky", "tourism": "artwork", "wheelchair": "yes"}}, {"type": "node", "id": 5734955330, "lat": 49.2672285, "lon": -123.1013595, "tags": {"artist_name": "Bronwyn Schuster", "artwork_type": "mural", "description": "A wall drawing of a mermaid with the tail of a seal.\n\nFor the Vancouver Mural Festival 2017", "name": "Seal-maid", "tourism": "artwork"}}, {"type": "node", "id": 5734955331, "lat": 49.2675671, "lon": -123.1016002, "tags": {"artwork_type": "mural", "description": "A blue scene in the woods which is painted on a wooden fence\n\nDesigned by Jenny Ritter\nFacilitated by Tin Can Studio\nPainted by the people of Mount Pleasant\n\nFor the Vancouver Mural Festival 2017", "direction": "90", "tourism": "artwork"}}, {"type": "node", "id": 5734955332, "lat": 49.268081, "lon": -123.1014875, "tags": {"artwork_type": "mural", "description": "A wall drawing of a maple leaf and a man with a sobrero and a guitar\n\nFor the Vancouver Mural Festival (no year specified)", "direction": "270", "tourism": "artwork"}}, {"type": "node", "id": 5734955333, "lat": 49.2681278, "lon": -123.1011138, "tags": {"artist_name": "Irving Cano", "artwork_type": "mural", "description": "This wall drawing shows a woman playing a saxophone.\n\nFor the Vancouver Mural Festival 2017", "direction": "0", "name": "Saxophone", "tourism": "artwork"}}, {"type": "node", "id": 5734955334, "lat": 49.2683911, "lon": -123.1016585, "tags": {"artist_name": "Carson Ting", "artwork_type": "mural", "description": "This wall drawing shows several comic animals driving vehicles.\n\nFor the Vancouver Mural Festival 2017", "direction": "90", "name": "Wild Ride", "start_date": "2017", "tourism": "artwork"}}, {"type": "node", "id": 5734955336, "lat": 49.2703755, "lon": -123.0994813, "tags": {"artist_name": "Cody Lecoy;Lenslie Vargas;Hira", "artwork_type": "mural", "description": "A wall drawing of imaginary animals consisting of various parts from real animals next to a lake\n\nFor the Vancouver Mural Festival 2016", "direction": "200", "start_date": "2016", "tourism": "artwork"}}, {"type": "node", "id": 5734955559, "lat": 49.2616334, "lon": -123.1008307, "tags": {"artist_name": "Justin Broadbent", "artwork_type": "mural", "description": "For the Vancouver Mural Festival 2016", "direction": "270", "tourism": "artwork"}}, {"type": "node", "id": 5734955560, "lat": 49.2615395, "lon": -123.1005294, "tags": {"artist_name": "Ben Frey", "artwork_type": "mural", "description": "Artist Statement:\n\"The meaning of my mural is to discuss how much people compromise personal space and comfort in order to live in a large city. As cities grow denser in population, the size of housing, units or otherwis\n\nFor Vancouver Mural Festival 2017", "direction": "90", "name": "Spacious' as a Concept", "tourism": "artwork"}}, {"type": "node", "id": 5734955565, "lat": 49.2620778, "lon": -123.0970634, "tags": {"artist_name": "Oxy G.", "artwork_type": "mural", "description": "A wall drawing showing a woman and two lions.\n\nFor the Vancouver Mural Festival 2017", "direction": "180", "tourism": "artwork"}}, {"type": "node", "id": 5734955566, "lat": 49.2623235, "lon": -123.0962158, "tags": {"artwork_type": "mural", "description": "This wall drawing shows various patterns.\n\nThis wall drawing is visible from the parking lot and spans over two walls.", "direction": "270", "tourism": "artwork"}}, {"type": "node", "id": 5734955688, "lat": 49.2595029, "lon": -123.1006355, "tags": {"artwork_type": "mural", "description": "A boy with a cell phone taking a photo of ladybugs", "direction": "180", "tourism": "artwork"}}, {"type": "node", "id": 5734955887, "lat": 49.2592006, "lon": -123.1008381, "tags": {"artist_name": "Loretta Lizzio", "artwork_type": "mural", "description": "A woman holding coffee beans", "direction": "0", "tourism": "artwork"}}, {"type": "node", "id": 5734955889, "lat": 49.2614859, "lon": -123.1008324, "tags": {"artist_name": "Justin Broadbent", "artwork_type": "mural", "description": "For Vancouver Mural Festival 2016", "direction": "270", "tourism": "artwork"}}, {"type": "node", "id": 5734955890, "lat": 49.2619247, "lon": -123.1006382, "tags": {"artwork_type": "mural", "direction": "0", "start_date": "2013", "tourism": "artwork"}}, {"type": "node", "id": 5734955891, "lat": 49.2620805, "lon": -123.0973434, "tags": {"artist_name": "Emily Gray", "artwork_type": "mural", "description": "A wall drawing showing an octopus.\n\nFor the Vancouver Mural Festival 2017", "direction": "180", "tourism": "artwork"}}, {"type": "node", "id": 5734955892, "lat": 49.2581742, "lon": -123.100677, "tags": {"artist_name": "Andrea Wan", "artwork_type": "mural", "description": "Drawn for the Vancouver Mural Festival 2018\n\nThis artwork spans over three walls.", "tourism": "artwork"}}, {"type": "node", "id": 5734955893, "lat": 49.2631188, "lon": -123.0978797, "tags": {"artwork_type": "mural", "description": "A wall draing showing three blue birds, a skull, two snakes, flowers and two masks.\n\nFor the Vancouver Mural Festival 2016", "direction": "90", "tourism": "artwork"}}, {"type": "node", "id": 5734955903, "lat": 49.2624153, "lon": -123.1005829, "tags": {"artist_name": "Kashink", "artwork_type": "mural", "description": "A wall drawing of several faces with fozr eyes each", "direction": "0", "tourism": "artwork"}}, {"type": "node", "id": 5734955904, "lat": 49.2625559, "lon": -123.1006705, "tags": {"artwork_type": "mural", "description": "A wall drawing of a woman picking coffee beans", "direction": "0", "name": "Berries and blue vines", "tourism": "artwork"}}, {"type": "node", "id": 5734955905, "lat": 49.2625484, "lon": -123.1004521, "tags": {"artist_name": "Ghia Collective", "artwork_type": "mural", "description": "A wall drawing of a blue tree\n\nFor the Vancouver Mural Festival 2017", "direction": "0", "name": "Ghia tree", "tourism": "artwork"}}, {"type": "node", "id": 5734955906, "lat": 49.2626041, "lon": -123.1022878, "tags": {"artist_name": "@alitbruce", "artwork_type": "mural", "description": "A abstract wall drawing of faces, pots, a tortoise and more. It uses the colours rose, orange, green, red, white and black.\n\nFor the Vancouver Mural Festival 2016", "direction": "90", "tourism": "artwork"}}, {"type": "node", "id": 5734955907, "lat": 49.2626406, "lon": -123.1026612, "tags": {"artwork_type": "mural", "description": "A wall drawing of fish in the style of the local natives.", "direction": "270", "tourism": "artwork"}}, {"type": "node", "id": 5734955908, "lat": 49.26345, "lon": -123.1016089, "tags": {"artist_name": "Francis Tiffany", "artwork_type": "mural", "description": "This wall drawing shows a scene on a beach. A woman holds up a beach ball. For the Vancouver Mural Festival 2017", "direction": "180", "name": "Vancouver Summer Fun", "start_date": "2017", "tourism": "artwork"}}, {"type": "node", "id": 5734955909, "lat": 49.2631296, "lon": -123.1018058, "tags": {"artist_name": "Sandeep Johal", "artwork_type": "mural", "description": "A wall drawing showing a woman on a tiger and more. For the Vancouver Mural Festival 2017", "direction": "90", "name": "Fierce like tigers", "start_date": "2017", "tourism": "artwork"}}, {"type": "node", "id": 5734955910, "lat": 49.263874, "lon": -123.1016735, "tags": {"artist_name": "Bifano (@bifanoland)", "artwork_type": "mural", "description": "A scenic view of mountains\n\nFor the Vancouver Mural Festival 2017", "direction": "270", "tourism": "artwork"}}, {"type": "node", "id": 5734955911, "lat": 49.2640643, "lon": -123.1015201, "tags": {"artwork_type": "mural", "description": "A wall drawing showing various things including a banana with a sad face.", "direction": "0", "tourism": "artwork"}}, {"type": "node", "id": 5734956069, "lat": 49.2610098, "lon": -123.1006924, "tags": {"artist_name": "Johnnie Christmas", "artwork_type": "mural", "description": "The wall drawing shows a woman drawing predators. Drawn for the Vancouver Mural Festival 2017", "direction": "0", "tourism": "artwork"}}, {"type": "node", "id": 5734956380, "lat": 49.2591225, "lon": -123.1006218, "tags": {"artist_name": "Ben Tour", "artwork_type": "mural", "description": "A face and a full body drawing of a blue wolf", "direction": "90", "tourism": "artwork"}}, {"type": "node", "id": 5734956381, "lat": 49.259633, "lon": -123.1007855, "tags": {"artist_name": "Peeta", "artwork_type": "mural", "direction": "180", "tourism": "artwork"}}, {"type": "node", "id": 5734956441, "lat": 49.2616789, "lon": -123.1004854, "tags": {"artist_name": "Mengya Zhao", "artwork_type": "mural", "description": "Artist Statement:\nThe mural depicts how people might spend their afternoon, camping or staying at home. They are reading books, playing badminton. cooking .... The mural is a reflection on summer exploring themes of nature and family.", "direction": "180", "name": "Sunday Afternoon", "tourism": "artwork"}}, {"type": "node", "id": 5734956442, "lat": 49.2575974, "lon": -123.1006855, "tags": {"artwork_type": "mural", "description": "This artwork spans over two walls.", "direction": "135", "tourism": "artwork"}}, {"type": "node", "id": 5734956446, "lat": 49.2638928, "lon": -123.1006653, "tags": {"artwork_type": "mural", "description": "Wall drawing in the style of Vancouver's native people", "level": "1", "tourism": "artwork"}}, {"type": "node", "id": 5734956447, "lat": 49.2630631, "lon": -123.1004926, "tags": {"artist_name": "Sharifah Marsden;Corey Laroque", "artwork_type": "mural", "description": "A wall drawing of a couple hugging.", "direction": "90", "name": "Zhawenjigewin (Love in Anishinaabe)", "tourism": "artwork"}}, {"type": "node", "id": 5734956449, "lat": 49.2633351, "lon": -123.1003391, "tags": {"artist_name": "Taka Sudo", "artwork_type": "mural", "description": "A colourful wall drawing of three animals with horns.", "direction": "180", "tourism": "artwork"}}, {"type": "node", "id": 5734956450, "lat": 49.2623414, "lon": -123.1013995, "tags": {"artist_name": "Jay Senetchko;Drew Young", "artwork_type": "mural", "description": "A wall drawing spanning over two buildings. \"The present\" was painted by Jay Senetchko and \"is a gift\" was painted by Drew Young.\n\nFor the Vancouver Mural Festival 2016", "direction": "0", "name": "The present is a gift", "tourism": "artwork"}}, {"type": "node", "id": 5734956451, "lat": 49.2625444, "lon": -123.1026068, "tags": {"artwork_subject": "riots", "artwork_type": "mural", "description": "A wall drawing showing a riot and soldiers in black. The art spans over three walls.", "level": "1", "tourism": "artwork"}}, {"type": "node", "id": 5734956452, "lat": 49.2632081, "lon": -123.1016604, "tags": {"artist_name": "Emily Gray, Oxy G., Oksana Gaidasheva and more", "artwork_type": "mural", "description": "Various animals drawn onto a shipping container For the Vancouver Mural Festival 2016", "tourism": "artwork"}}, {"type": "node", "id": 5734956454, "lat": 49.2635373, "lon": -123.1017014, "tags": {"artist_name": "Priscilla Yu", "artwork_type": "mural", "description": "Abstract patterns on a wall", "direction": "270", "name": "Befriend Your Inner Demon", "tourism": "artwork"}}, {"type": "node", "id": 5734956455, "lat": 49.2641986, "lon": -123.1015465, "tags": {"artist_name": "Spencer Keeton Cunningham", "artwork_type": "mural", "description": "Three humanoid animals on skateboards", "direction": "180", "start_date": "2014", "tourism": "artwork"}}, {"type": "node", "id": 5734956456, "lat": 49.2645262, "lon": -123.1011877, "tags": {"artwork_type": "mural", "description": "A wall drawing showing children playing.", "direction": "180", "tourism": "artwork"}}, {"type": "node", "id": 5734956457, "lat": 49.2652371, "lon": -123.1016962, "tags": {"artist_name": "David Ullock; Douglas Nhung", "artwork_type": "mural", "description": "This wall drawing shows a floating woman surounded by abstract, colourful shapes.", "direction": "90", "tourism": "artwork"}}, {"type": "node", "id": 5734956460, "lat": 49.2662762, "lon": -123.1010352, "tags": {"artwork_type": "mural", "description": "A wall drawing of abstract objects and water which spans over the North and East side of a building.\n\nFor the Vancouver Mural Festival 2016", "start_date": "2016", "tourism": "artwork"}}, {"type": "node", "id": 5734956461, "lat": 49.2662846, "lon": -123.101609, "tags": {"artist_name": "Paul Windson", "artwork_type": "mural", "direction": "270", "name": "Eagle Opens Up", "start_date": "2017", "tourism": "artwork"}}, {"type": "node", "id": 5734956462, "lat": 49.2665756, "lon": -123.1010154, "tags": {"artwork_type": "graffiti", "description": "A graffiti that is visible from the parking lot", "direction": "270", "name": "In Loving Memory of Holden", "tourism": "artwork"}}, {"type": "node", "id": 5734956463, "lat": 49.2673883, "lon": -123.1011829, "tags": {"artist_name": "Carrielynn Victor", "artwork_type": "mural", "description": "A wall drawing of a bird\n\nFor the Mural Art Festival 2017", "direction": "180", "name": "Stellars Jay", "start_date": "2017", "tourism": "artwork"}}, {"type": "node", "id": 5734956464, "lat": 49.2672162, "lon": -123.1011114, "tags": {"artist_name": "@amandasmartart", "artwork_type": "mural", "description": "A wall drawing of a mermaid and another mermaid with the tail of an octopus. This artwork spans over the East and the North side of a building.", "name": "Octo-maid", "start_date": "2017", "tourism": "artwork"}}, {"type": "node", "id": 5734956465, "lat": 49.2676678, "lon": -123.1014635, "tags": {"artwork_type": "mural", "description": "Three walls of a building are painted in yellow and display various drawings including smiling clouds.", "direction": "270", "tourism": "artwork"}}, {"type": "node", "id": 5734956466, "lat": 49.268054, "lon": -123.1015688, "tags": {"artwork_type": "mural", "description": "A wall drawing of paths in black and white\n\nFor the Vancouver Mural Festival 2017", "direction": "90", "tourism": "artwork"}}, {"type": "node", "id": 5734956467, "lat": 49.2681351, "lon": -123.1013578, "tags": {"artist_name": "Ari De la Mora", "artwork_type": "mural", "description": "This wall drawing shows a woman holding a heart.", "direction": "0", "tourism": "artwork"}}, {"type": "node", "id": 5734956468, "lat": 49.2706694, "lon": -123.0998442, "tags": {"artist:wikidata": "Q24336846", "artist_name": "Nevercrew", "artwork_type": "mural", "description": "This wall drawing shows a polar bear trapped in a red plastic bottle.\n\nFor the Vancouver Mural Festival 2016\n\nFor the Vancouver Mural Festival 2016", "direction": "280", "name": "Exhausting Machine", "start_date": "2016-08-17", "tourism": "artwork"}}, {"type": "node", "id": 5734956469, "lat": 49.2704498, "lon": -123.0997239, "tags": {"artist_name": "Paige Bowman", "artwork_type": "mural", "description": "A wall drawing of colourful dragon-like animals", "direction": "200", "tourism": "artwork"}}, {"type": "node", "id": 5734956470, "lat": 49.2702233, "lon": -123.098933, "tags": {"artist_name": "Ola Volo", "artwork_type": "mural", "description": "A bright wall drawing if various shapes with eyes\n\nFor the Vancouver Mural Festival 2016", "direction": "200", "tourism": "artwork"}}, {"type": "node", "id": 5734957379, "lat": 49.2668434, "lon": -123.1022173, "tags": {"artist_name": "Andy Dixon", "artwork_type": "mural", "description": "A large wall drawing that shows a room full of artworks.\n\nFor the Vancouver Mural Festival 2017", "direction": "0", "name": "Studio View", "start_date": "2017", "tourism": "artwork"}}, {"type": "node", "id": 5734957380, "lat": 49.2670101, "lon": -123.1015396, "tags": {"artist_name": "Tia Rambaran", "artwork_type": "mural", "description": "A wall drawing which shows a mermaid with the tail of an eel.\n\nFor the Vancouver Mural Festival 2017", "direction": "270", "name": "Mermaid", "tourism": "artwork"}}, {"type": "node", "id": 5734957381, "lat": 49.2674515, "lon": -123.1012955, "tags": {"artwork_type": "mural", "description": "A wall drawing showing a blue faun", "direction": "270", "tourism": "artwork"}}, {"type": "node", "id": 5744940535, "lat": 49.268129, "lon": -123.1012246, "tags": {"artwork_type": "mural", "description": "A wall drawing that shows a man playing a guitar.\n\nFor the Vancouver Mural Festival 2017", "direction": "0", "name": "Guitarist", "tourism": "artwork"}}, {"type": "node", "id": 5744940655, "lat": 49.2670568, "lon": -123.1010213, "tags": {"artist_name": "Lani Imre", "artwork_type": "mural", "direction": "90", "name": "Lady Mermaid", "tourism": "artwork"}}, {"type": "node", "id": 5744940657, "lat": 49.2633291, "lon": -123.1016095, "tags": {"artist_name": "Brother Jopa", "artwork_type": "mural", "description": "For the Vancouver Mural Festival 2017", "direction": "0", "name": "Stay yummy", "start_date": "2017", "tourism": "artwork"}}, {"type": "node", "id": 5745057235, "lat": 49.2708496, "lon": -123.098217, "tags": {"artist_name": "Katie So;Benjamin Knight", "artwork_type": "mural", "direction": "90", "name": "Knot Yourself", "tourism": "artwork"}}, {"type": "node", "id": 5745066135, "lat": 49.2674582, "lon": -123.1015925, "tags": {"artist_name": "Jane Cheng", "artwork_type": "mural", "description": "A wall drawing of colourful squares.\n\nFor the Vancouver Mural Festival", "direction": "90", "name": "Holograph", "tourism": "artwork"}}, {"type": "node", "id": 5828090547, "lat": 49.260426, "lon": -123.1016131, "tags": {"artist_name": "Danielle Krysa", "artwork_type": "mural", "description": "This wall painting shows a gray person holding an umbrella and a rainbow out of bubbles.\n\nIt was part of the Vancouver Mural Festival 2018.", "direction": "180", "name": "The jealous creator", "start_date": "2018", "tourism": "artwork"}}, {"type": "node", "id": 5828090548, "lat": 49.260682, "lon": -123.1017003, "tags": {"artwork_type": "mural", "description": "This wall painting shows the face of a child while it is hugging their mother.", "direction": "180", "tourism": "artwork"}}, {"type": "node", "id": 5895494987, "lat": 49.2813894, "lon": -123.0848777, "tags": {"tourism": "artwork"}}, {"type": "node", "id": 6089270262, "lat": 49.2414393, "lon": -123.1136561, "tags": {"artist_name": "Henry Moore", "artwork_type": "sculpture", "material": "bronze", "name": "Knife Edge Two Piece", "start_date": "1969", "tourism": "artwork", "website": "https://covapp.vancouver.ca/PublicArtRegistry/ArtworkDetail.aspx?FromArtworkSearch=True&ArtworkId=106"}}, {"type": "node", "id": 6089270264, "lat": 49.2421518, "lon": -123.1124827, "tags": {"artist_name": "J. Seward Johnson, Jr", "artwork_type": "sculpture", "name": "Photo Session", "owner": "City of Vancouver", "start_date": "1984", "tourism": "artwork", "website": "https://covapp.vancouver.ca/PublicArtRegistry/ArtworkDetail.aspx?ArtworkId=309"}}, {"type": "node", "id": 6089367721, "lat": 49.2401234, "lon": -123.1316279, "tags": {"artist_name": "Bill Reid", "name": "Black Eagle canoe", "tourism": "artwork"}}, {"type": "node", "id": 6089367725, "lat": 49.2405055, "lon": -123.1334363, "tags": {"artwork_type": "carving", "name": "Totem Poles", "tourism": "artwork"}}, {"type": "node", "id": 6089367726, "lat": 49.2391571, "lon": -123.1333048, "tags": {"tourism": "artwork"}}, {"type": "node", "id": 6089367727, "lat": 49.2389557, "lon": -123.132983, "tags": {"tourism": "artwork"}}, {"type": "node", "id": 6089367728, "lat": 49.2391659, "lon": -123.1322561, "tags": {"tourism": "artwork"}}, {"type": "node", "id": 6089367729, "lat": 49.2403041, "lon": -123.1307299, "tags": {"tourism": "artwork"}}, {"type": "node", "id": 6089367731, "lat": 49.2400423, "lon": -123.1320643, "tags": {"tourism": "artwork"}}, {"type": "node", "id": 6139669938, "lat": 49.2643748, "lon": -123.105005, "tags": {"artist_name": "Zox Svetorovich", "artwork_type": "mural", "description": "This is an abstract wall painting of two birds, two suns and a flower on a dark blue background.", "direction": "90", "tourism": "artwork"}}, {"type": "node", "id": 6210812006, "lat": 49.2093058, "lon": -123.1166999, "tags": {"artist_name": "Ken Lum", "artwork_type": "statue", "description": "Modeled in the pose of Auguste Rodin\u2019s The Thinker (1887-1889), Simon Fraser is a bronze sculpture created to celebrate and honour the explorer Simon Fraser. ", "material": "bronze", "monument": "statue", "name": "Simon Fraser", "start_date": "2015", "tourism": "artwork", "website": "https://covapp.vancouver.ca/PublicArtRegistry/ArtworkDetail.aspx?FromArtworkSearch=True&ArtworkId=624", "website_1": "https://covapp.vancouver.ca/PublicArtRegistry/ArtworkDetail.aspx?ArtworkId=624"}}, {"type": "node", "id": 6210836362, "lat": 49.2675429, "lon": -123.1192684, "tags": {"artist_name": "Maskull Lasserre", "artwork_type": "sculpture", "description": "Acoustic Anvil: A Small Weight to Forge the Sea is the physical convergence of both real and imagined histories, relationships, and resonances that mark this seemingly silent site.", "material": "steel", "name": "Acoustic Anvil: A Small Weight to Forge the Sea", "tourism": "artwork", "website": "https://www.vancouverbiennale.com/artworks/acoustic-anvil-a-small-weight-to-forge-the-sea/"}}, {"type": "node", "id": 6210859462, "lat": 49.279931, "lon": -123.139762}, {"type": "node", "id": 6210859463, "lat": 49.2798984, "lon": -123.1397894}, {"type": "node", "id": 6210859464, "lat": 49.2798831, "lon": -123.1397468}, {"type": "node", "id": 6210859465, "lat": 49.2799156, "lon": -123.1397193}, {"type": "node", "id": 6210866728, "lat": 49.1847151, "lon": -123.1386454, "tags": {"artist_name": "Ren Jun", "artwork_type": "sculpture", "material": "steel", "name": "Water #10", "tourism": "artwork", "website": "https://www.vancouverbiennale.com/artworks/water-10/"}}, {"type": "node", "id": 6210980114, "lat": 49.2624496, "lon": -123.1145355}, {"type": "node", "id": 6210980115, "lat": 49.2625451, "lon": -123.1145088}, {"type": "node", "id": 6210980116, "lat": 49.2626231, "lon": -123.1145053}, {"type": "node", "id": 6210980117, "lat": 49.2626563, "lon": -123.1145568}, {"type": "node", "id": 6210980118, "lat": 49.2625775, "lon": -123.1145723}, {"type": "node", "id": 6210980119, "lat": 49.2624819, "lon": -123.1145734}, {"type": "node", "id": 6211005481, "lat": 49.2683213, "lon": -123.1103648}, {"type": "node", "id": 6211005482, "lat": 49.2683118, "lon": -123.110365}, {"type": "node", "id": 6211005483, "lat": 49.2683107, "lon": -123.1102284}, {"type": "node", "id": 6211005484, "lat": 49.2683203, "lon": -123.1102282}, {"type": "node", "id": 6214780543, "lat": 49.208698, "lon": -123.1421516, "tags": {"addr:street": "Cornish Street", "artist_name": "Susan Point", "artwork_type": "sculpture", "material": "aluminium", "name": "Fushion", "start_date": "2014", "tourism": "artwork", "website": "https://covapp.vancouver.ca/PublicArtRegistry/ArtworkDetail.aspx?FromArtworkSearch=True&ArtworkId=589"}}, {"type": "node", "id": 6214880068, "lat": 49.1751482, "lon": -123.1500241, "tags": {"artist_name": "Janet Echelman.", "artwork_type": "sculpture", "name": "Water Sky Garden", "tourism": "artwork", "wikidata": "Q7973367"}}, {"type": "node", "id": 6216807226, "lat": 49.2719314, "lon": -123.1339405, "tags": {"artwork_type": "installation", "description": "One of the many industrial artifacts on Granville Island that pay homage to the industrial area this was during the 20th century.", "inscription": "Built by Ideal Iron Wks Ltd Vancouver, B.C. Universal Type Winch No. 3", "name": "Winches", "tourism": "artwork"}}, {"type": "node", "id": 6217993690, "lat": 49.2105438, "lon": -123.1168419, "tags": {"artist_name": "Douglas Coupland", "artwork_type": "sculpture", "highway": "footway", "name": "Golden Tree", "start_date": "2016", "tourism": "artwork"}}, {"type": "node", "id": 6256993741, "lat": 49.0080093, "lon": -123.1305018, "tags": {"artist_name": "Karl Morgan", "artwork_type": "sculpture", "indoor": "yes", "name": "Eagle and Salmon Carving", "start_date": "2005-06", "tourism": "artwork"}}, {"type": "node", "id": 6256993761, "lat": 49.007901, "lon": -123.1306539, "tags": {"artwork_type": "sculpture", "description": "Orca", "tourism": "artwork"}}, {"type": "node", "id": 6328004678, "lat": 49.2687465, "lon": -123.1327148, "tags": {"artwork_type": "sculpture", "tourism": "artwork"}}, {"type": "node", "id": 6328004681, "lat": 49.2675747, "lon": -123.1390502, "tags": {"artwork_type": "sculpture", "description": "Vancouver Centennial", "material": "concrete", "name": "100", "tourism": "artwork"}}, {"type": "node", "id": 6366336988, "lat": 49.2784178, "lon": -123.1081054, "tags": {"artwork_type": "statue", "subject": "Roger Neilson", "subject:wikidata": "Q1524237", "tourism": "artwork"}}, {"type": "node", "id": 6366344280, "lat": 49.278262, "lon": -123.1077265, "tags": {"artwork_type": "statue", "subject": "Pat Quinn", "subject:wikidata": "Q712344", "subject:wikipedia": "en:Pat Quinn (ice hockey)", "tourism": "artwork"}}, {"type": "node", "id": 6386863912, "lat": 49.2660786, "lon": -123.2444177}, {"type": "node", "id": 6386863913, "lat": 49.2660786, "lon": -123.244473}, {"type": "node", "id": 6386863914, "lat": 49.266128, "lon": -123.2444448}, {"type": "node", "id": 6386896232, "lat": 49.2674562, "lon": -123.2544877}, {"type": "node", "id": 6386896233, "lat": 49.2675032, "lon": -123.2544152}, {"type": "node", "id": 6386896234, "lat": 49.2675777, "lon": -123.2545286}, {"type": "node", "id": 6386896235, "lat": 49.2675308, "lon": -123.2546011}, {"type": "node", "id": 6403308818, "lat": 49.2627285, "lon": -123.0889901, "tags": {"artwork_type": "mural", "description": "This mural shows a blue wolf in front of a rainbow-coloured landscape.", "direction": "270", "tourism": "artwork"}}, {"type": "node", "id": 6407793030, "lat": 49.2767282, "lon": -123.1258876, "tags": {"artwork_type": "mural", "direction": "135", "tourism": "artwork"}}, {"type": "node", "id": 6440030693, "lat": 49.2754843, "lon": -123.1140508, "tags": {"artwork_type": "statue", "name": "Slow", "tourism": "artwork"}}, {"type": "node", "id": 6460781477, "lat": 49.2627974, "lon": -123.0700222, "tags": {"artwork_type": "mural", "description": "A mural artwork which shows various old vehicles of Vancouver, including a car of fire fighters, a bus with the next stop \"Commercial\", a yellow tram car and other cars in various colours.", "direction": "0", "tourism": "artwork"}}, {"type": "node", "id": 6460781985, "lat": 49.2636637, "lon": -123.0942067, "tags": {"artwork_type": "mural", "description": "A mural artwork which shows children gathered around a snail and an abstract, colourful world with a rainbow and aboriginal art.", "direction": "180", "tourism": "artwork"}}, {"type": "node", "id": 6489787261, "lat": 49.2700574, "lon": -123.1062861, "tags": {"artwork_type": "sculpture", "tourism": "artwork"}}, {"type": "node", "id": 6512152953, "lat": 49.2766681, "lon": -123.1252237, "tags": {"artist_name": "Jill Anho", "artwork_type": "installation", "material": "steel", "name": "Moving Pictures", "start_date": "2005", "tourism": "artwork"}}, {"type": "node", "id": 6519201525, "lat": 49.2820877, "lon": -123.1220363, "tags": {"artist_name": "Chung Hung", "artwork_type": "sculpture", "material": "steel", "name": "Spring", "tourism": "artwork"}}, {"type": "node", "id": 6534721295, "lat": 49.272617, "lon": -123.1869842, "tags": {"name": "Frame - What do you see?", "tourism": "artwork"}}, {"type": "node", "id": 6543462105, "lat": 49.2736755, "lon": -123.092447, "tags": {"artist_name": "Richard Prince", "artwork_type": "sculpture", "description": "A heritage Buffalo Springfield road roller that sat at the entrance of the old works yard forms the centrepiece of this sculptural tableau that includes silhouettes of men working. ", "name": "Roller", "start_date": "2004", "tourism": "artwork", "website": "https://covapp.vancouver.ca/PublicArtRegistry/ArtworkDetail.aspx?FromArtworkSearch=False&ArtworkId=354", "website:stock": "https://www.waymarking.com/waymarks/wm1153M_Buffalo_Springfield_Road_Roller_Vancouver_BC"}}, {"type": "node", "id": 6565501840, "lat": 49.2813483, "lon": -123.0877306, "tags": {"artwork_type": "mural", "description": "A mural on the outside of the first two floors.", "direction": "90", "tourism": "artwork"}}, {"type": "node", "id": 6565591046, "lat": 49.2815384, "lon": -123.0851084, "tags": {"artist_name": "Eric Louie", "artwork_type": "mural", "description": "A mural showing various colour gradients", "direction": "0", "tourism": "artwork"}}, {"type": "node", "id": 6565617922, "lat": 49.2822966, "lon": -123.0857279, "tags": {"artwork_type": "mural", "description": "A colourful mural of abstract, blue butterlies.", "direction": "270", "tourism": "artwork"}}, {"type": "node", "id": 6565632167, "lat": 49.2821266, "lon": -123.0853634, "tags": {"artwork_type": "mural", "description": "A wall-filling mural showing Transformers.", "direction": "180", "tourism": "artwork"}}, {"type": "node", "id": 6565634635, "lat": 49.2818073, "lon": -123.0874779, "tags": {"artist_name": "B.C. Turf Design", "artwork_type": "mural", "description": "A wall-filling mural showing many humanized comic animals.", "direction": "90", "tourism": "artwork"}}, {"type": "node", "id": 6565637788, "lat": 49.2822574, "lon": -123.0850431, "tags": {"artist_name": "@WaterStreetPhantom", "artwork_type": "mural", "description": "A mural of a woman's face and hand surrounded by pointy flower-like shapes.", "direction": "90", "tourism": "artwork"}}, {"type": "node", "id": 6595802968, "lat": 49.2694625, "lon": -123.1078822, "tags": {"artwork_type": "sculpture", "name": "Nautika", "tourism": "artwork"}}, {"type": "node", "id": 6632079317, "lat": 49.282673, "lon": -123.1207729, "tags": {"artwork_type": "installation", "description": "Vehicle mashup", "tourism": "artwork"}}, {"type": "node", "id": 6721957336, "lat": 49.2820105, "lon": -123.1221486, "tags": {"tourism": "artwork"}}, {"type": "node", "id": 6721966295, "lat": 49.2814752, "lon": -123.1222337, "tags": {"artist_name": "Geert Maas", "artwork_type": "sculpture", "material": "bronze", "name": "Joy of Freedom", "start_date": "1995", "tourism": "artwork", "website": "https://covapp.vancouver.ca/PublicArtRegistry/ArtworkDetail.aspx?FromArtworkSearch=True&ArtworkId=300"}}, {"type": "node", "id": 6810371837, "lat": 49.2792773, "lon": -123.1201456, "tags": {"artwork_type": "mural", "name": "Red Card", "tourism": "artwork"}}, {"type": "node", "id": 6813564992, "lat": 49.2393178, "lon": -123.129438, "tags": {"artist_name": "George Lundeen", "artwork_type": "sculpture", "material": "bronze", "name": "Departure", "tourism": "artwork"}}, {"type": "node", "id": 6821748225, "lat": 49.2725597, "lon": -123.115671, "tags": {"artist_name": "Jerry Pethick", "artwork_type": "sculpture", "material": "bronze", "name": "Time Top", "start_date": "2006", "tourism": "artwork"}}, {"type": "node", "id": 6862168001, "lat": 49.2727388, "lon": -123.0868787, "tags": {"artist_name": "Greg Snider", "artwork_type": "sculpture", "material": "concrete;steel;cast_iron", "name": "Project for a Public Works Yard", "start_date": "2004", "tourism": "artwork"}}, {"type": "node", "id": 6862180478, "lat": 49.2731071, "lon": -123.0863524, "tags": {"artist_name": "Lance A. Shook", "name": "The Firefighter", "start_date": "2007", "tourism": "artwork"}}, {"type": "node", "id": 6874780070, "lat": 49.2652678, "lon": -123.1416387, "tags": {"artwork_type": "sculpture", "tourism": "artwork"}}, {"type": "node", "id": 7004962239, "lat": 49.2718863, "lon": -123.0863975, "tags": {"artwork_type": "sculpture", "tourism": "artwork"}}, {"type": "node", "id": 7037232435, "lat": 49.2791671, "lon": -123.2336646, "tags": {"artist_name": "Christel Fuoss-Moore", "artwork_type": "sculpture", "material": "concrete", "name": "Anchor", "tourism": "artwork"}}, {"type": "node", "id": 7127271417, "lat": 49.1971326, "lon": -123.1383203, "tags": {"artwork_type": "sculpture", "description": "Life Size Bauble", "tourism": "artwork"}}, {"type": "node", "id": 7143736246, "lat": 49.2634462, "lon": -123.1179354, "tags": {"artwork_type": "sculpture", "tourism": "artwork"}}, {"type": "node", "id": 7147645785, "lat": 49.2798713, "lon": -123.1034252, "tags": {"artwork_type": "bust", "material": "metal", "subject:wikidata": "Q8573", "subject:wikipedia": "en:Sun Yat-sen", "tourism": "artwork"}}, {"type": "node", "id": 7196046711, "lat": 49.2769697, "lon": -123.0809106, "tags": {"artwork_type": "mural", "name": "La Casa Gelato Mural", "tourism": "artwork"}}, {"type": "node", "id": 7451298503, "lat": 49.2707806, "lon": -123.103265, "tags": {"artist_name": "Marie Khouri", "artwork_type": "sculpture", "material": "metal", "name": "Eyes on the Street", "start_date": "2018-01-01", "tourism": "artwork", "website": "https://covapp.vancouver.ca/PublicArtRegistry/ArtworkDetail.aspx?FromArtworkSearch=True&ArtworkId=779"}}, {"type": "node", "id": 7460079424, "lat": 49.2003658, "lon": -123.1137858, "tags": {"artist_name": "Slyvia Grace Borda", "artwork_type": "installation", "name": "Working River", "start_date": "2011", "tourism": "artwork"}}, {"type": "node", "id": 7504719377, "lat": 49.2662475, "lon": -123.2507283, "tags": {"artist_name": "Esther Shalev-Gerz", "artwork_type": "installation", "name": "The Shadow", "tourism": "artwork", "website": "https://infrastructuredevelopment.ubc.ca/projects/the-shadow/"}}, {"type": "node", "id": 7711922474, "lat": 49.2671461, "lon": -123.2563786, "tags": {"artist_name": "Gerhard Class", "artwork_type": "sculpture", "material": "steel", "name": "Tuning Fork", "start_date": "1968", "tourism": "artwork", "website": "https://belkin.ubc.ca/collections/#gerhard-class-tuning-fork"}}, {"type": "node", "id": 7714986905, "lat": 49.2098097, "lon": -123.1405032, "tags": {"artist_name": "Robyn Sparrow", "button_operated": "yes", "crossing": "traffic_signals", "crossing:island": "no", "crossing:markings": "pictograms;lines", "highway": "crossing", "material": "Preformed_thermoplastic", "start_date": "2019", "tactile_paving": "no", "tourism": "artwork", "website": "https://covapp.vancouver.ca/PublicArtRegistry/ArtworkDetail.aspx?FromArtworkSearch=True&ArtworkId=824"}}, {"type": "node", "id": 7715096335, "lat": 49.2099239, "lon": -123.140498, "tags": {"artist_name": "Robyn Sparrow", "button_operated": "yes", "crossing": "traffic_signals", "crossing:island": "no", "crossing:markings": "pictograms;lines", "highway": "crossing", "material": "Preformed_thermoplastic", "name": "Musqueam Artist-Designed Crosswalk", "start_date": "2019", "tactile_paving": "no", "tourism": "artwork", "website": "https://covapp.vancouver.ca/PublicArtRegistry/ArtworkDetail.aspx?FromArtworkSearch=True&ArtworkId=824"}}, {"type": "node", "id": 7715096336, "lat": 49.2098745, "lon": -123.1406727, "tags": {"artist_name": "Robyn Sparrow", "material": "Preformed_thermoplastic", "name": "Musqueam Artist-Designed Crosswalk", "start_date": "2019", "tourism": "artwork", "website": "https://covapp.vancouver.ca/PublicArtRegistry/ArtworkDetail.aspx?FromArtworkSearch=True&ArtworkId=824"}}, {"type": "node", "id": 7742323152, "lat": 49.2732979, "lon": -123.0741776, "tags": {"artwork_type": "mosaic", "name": "Mosaic Creek", "tourism": "artwork"}}, {"type": "node", "id": 7752757220, "lat": 49.2807611, "lon": -123.1384455, "tags": {"description": "centennial fountain", "tourism": "artwork"}}, {"type": "node", "id": 7811278907, "lat": 49.2517944, "lon": -123.0659156, "tags": {"artist_name": "Peter Gazendam", "description": "2020", "name": "Koco, Brewers Park, August 11, 2019", "tourism": "artwork"}}, {"type": "node", "id": 7907271932, "lat": 49.2729099, "lon": -123.1261935}, {"type": "node", "id": 7907271933, "lat": 49.2729153, "lon": -123.1261788}, {"type": "node", "id": 7907271934, "lat": 49.2729182, "lon": -123.1261611}, {"type": "node", "id": 7907271935, "lat": 49.2729172, "lon": -123.1261437}, {"type": "node", "id": 7907271936, "lat": 49.2729124, "lon": -123.1261239}, {"type": "node", "id": 7907271937, "lat": 49.2729038, "lon": -123.1261098}, {"type": "node", "id": 7907271938, "lat": 49.2728936, "lon": -123.1261008}, {"type": "node", "id": 7907271939, "lat": 49.2728827, "lon": -123.1260956}, {"type": "node", "id": 7907271940, "lat": 49.2728815, "lon": -123.1261113}, {"type": "node", "id": 7907271941, "lat": 49.2728669, "lon": -123.1261118}, {"type": "node", "id": 7907271942, "lat": 49.2728563, "lon": -123.1261156}, {"type": "node", "id": 7907271943, "lat": 49.2728487, "lon": -123.1261263}, {"type": "node", "id": 7907271944, "lat": 49.2728445, "lon": -123.1261397}, {"type": "node", "id": 7907271945, "lat": 49.2728408, "lon": -123.1261551}, {"type": "node", "id": 7907271946, "lat": 49.2728406, "lon": -123.1261715}, {"type": "node", "id": 7907271947, "lat": 49.272843, "lon": -123.1261848}, {"type": "node", "id": 7907271948, "lat": 49.2728483, "lon": -123.1261977}, {"type": "node", "id": 7907271949, "lat": 49.2728562, "lon": -123.1262069}, {"type": "node", "id": 7907271950, "lat": 49.2728654, "lon": -123.1262139}, {"type": "node", "id": 7907271951, "lat": 49.2728738, "lon": -123.1262167}, {"type": "node", "id": 7907271952, "lat": 49.2728847, "lon": -123.126217}, {"type": "node", "id": 7907271953, "lat": 49.2728945, "lon": -123.1262132}, {"type": "node", "id": 7907271954, "lat": 49.2729017, "lon": -123.126206}, {"type": "node", "id": 8017626235, "lat": 49.2748786, "lon": -123.0917264, "tags": {"artist_name": "Ken Lum", "name": "A Tale of Two Children", "tourism": "artwork"}}, {"type": "node", "id": 8017724910, "lat": 49.2668922, "lon": -123.1064246, "tags": {"artwork_type": "mural", "tourism": "artwork"}}, {"type": "node", "id": 8017750123, "lat": 49.2633874, "lon": -123.1092606, "tags": {"artist_name": "Carole Mathys", "artwork_type": "mural", "tourism": "artwork"}}, {"type": "node", "id": 8047684224, "lat": 49.2740665, "lon": -123.1307869, "tags": {"artist_name": "Rodney Graham", "artwork_type": "sculpture", "description": "The artwork spins daily at noon, 4 pm, and 9 pm. The entire cycle lasts for about four minutes. The first minute involves the chandelier's slow descent, two minutes of spinning, and the final minute is for the slow ascent of the artwork's return to its or", "name": "Spinning Chandelier", "tourism": "artwork", "website": "https://covapp.vancouver.ca/PublicArtRegistry/ArtworkDetail.aspx?FromArtworkSearch=True&ArtworkId=823", "wikidata": "Q110223646", "wikipedia": "en:Spinning Chandelier"}}, {"type": "node", "id": 8130805839, "lat": 49.2756872, "lon": -123.1307687, "tags": {"artist_name": "Rodney Graham", "name": "Erasmus Weathervane", "tourism": "artwork", "year": "2008"}}, {"type": "node", "id": 8148137094, "lat": 49.2092261, "lon": -123.1168627, "tags": {"artist_name": "Geoffrey Farmer, Every Letter of the Alphabet Printing Ltd.", "artwork_type": "streetart", "name": "Fraser River Stories", "start_date": "2015", "tourism": "artwork", "website": "https://covapp.vancouver.ca/PublicArtRegistry/ArtworkDetail.aspx?FromArtworkSearch=True&ArtworkId=658"}}, {"type": "node", "id": 8148173520, "lat": 49.2118345, "lon": -123.1068441, "tags": {"artist_name": "Douglas Coupland", "artwork_type": "sculpture", "material": "concrete", "memorial": "obelisk", "name": "Infinite Tire", "start_date": "2012", "tourism": "artwork", "website": "https://covapp.vancouver.ca/PublicArtRegistry/ArtworkDetail.aspx?FromArtworkSearch=True&ArtworkId=526"}}, {"type": "node", "id": 8148173926, "lat": 49.209396, "lon": -123.1161508, "tags": {"artist_name": "Urban Visuals", "artwork_type": "installation", "height": "55", "name": "Ebb and Flow", "start_date": "2015", "tourism": "artwork", "website": "https://covapp.vancouver.ca/PublicArtRegistry/ArtworkDetail.aspx?FromArtworkSearch=True&ArtworkId=659"}}, {"type": "node", "id": 8148193157, "lat": 49.2100365, "lon": -123.1164655, "tags": {"artist_name": "Susan Point", "artwork_type": "carving", "name": "Salish Gifts", "start_date": "2015", "tourism": "artwork", "website": "https://covapp.vancouver.ca/PublicArtRegistry/ArtworkDetail.aspx?FromArtworkSearch=True&ArtworkId=626"}}, {"type": "node", "id": 8594006472, "lat": 49.2713974, "lon": -123.1064762, "tags": {"artist_name": "Myfanwy MacLeod", "artwork_type": "sculpture", "name": "The Birds", "note": "Giant Sparrows", "tourism": "artwork"}}, {"type": "node", "id": 8660626400, "lat": 49.2715929, "lon": -123.1907172, "tags": {"artist_name": "Letha Keate", "name": "Continuity", "tourism": "artwork", "year": "1978"}}, {"type": "node", "id": 8695629951, "lat": 49.2718501, "lon": -123.1813625, "tags": {"artist_name": "Jo\u00e3o Loureiro", "artwork_type": "installation", "description": "Inspired by the Vancouver Biennale\u2019s 2014-2016 exhibition theme Open Borders / Crossroads Vancouver, Vancouver Novel by Jo\u00e3o Loureiro explores the shifting boundaries between public and private life in an era marked by social media and reality TV.", "material": "metal", "name": "Vancouver Novel", "tourism": "artwork", "website": "https://www.vancouverbiennale.com/artworks/vancouver-novel/"}}, {"type": "node", "id": 8713609890, "lat": 49.2816591, "lon": -123.1250215, "tags": {"artwork_type": "mural", "tourism": "artwork"}}, {"type": "node", "id": 8713609892, "lat": 49.2856171, "lon": -123.1266162, "tags": {"artwork_type": "mural", "tourism": "artwork"}}, {"type": "node", "id": 8770825936, "lat": 49.2626552, "lon": -123.1145343}, {"type": "node", "id": 8770825937, "lat": 49.2624854, "lon": -123.114518}, {"type": "node", "id": 8770825938, "lat": 49.2624501, "lon": -123.1145579}, {"type": "node", "id": 8901822441, "lat": 49.2714666, "lon": -123.1329786, "tags": {"artist_name": "OSGEMEOS (Gustavo and Ot\u00e1vio Pandolfo)", "artwork_type": "mural", "name": "Giants", "tourism": "artwork", "website": "https://www.vancouverbiennale.com/artworks/giants/"}}, {"type": "node", "id": 8949996427, "lat": 49.2823425, "lon": -123.12117, "tags": {"artist_name": "Brady Cranfield", "artwork_type": "installation", "name": "Weekend Chime", "tourism": "artwork"}}, {"type": "node", "id": 8972734774, "lat": 49.2710517, "lon": -123.1337282, "tags": {"artwork_type": "sculpture", "description": "Kinetic Sculpture", "name": "Ocean Commotion", "tourism": "artwork"}}, {"type": "node", "id": 9044442368, "lat": 49.2713674, "lon": -123.1203584, "tags": {"artist_name": "Chen Wenling", "name": "The Proud Yourh", "tourism": "artwork"}}, {"type": "node", "id": 9082115597, "lat": 49.2432545, "lon": -123.0610862, "tags": {"artist_name": "Khan Lee", "artwork_type": "installation", "material": "steel", "name": "108 Steps", "tourism": "artwork", "website": "https://covapp.vancouver.ca/PublicArtRegistry/ArtworkDetail.aspx?FromArtworkSearch=True&ArtworkId=787"}}, {"type": "node", "id": 9194498972, "lat": 49.2713644, "lon": -123.1460089, "tags": {"artist_name": "Roberto Palomino and Oparin Ortiz", "artwork_type": "installation", "material": "stone", "name": "Sopa SUR", "tourism": "artwork"}}, {"type": "node", "id": 9229989639, "lat": 49.2710551, "lon": -123.12282, "tags": {"artist_name": "Buster Simpson", "artwork_type": "sculpture", "description": "It resembles a calligraphy brush poised to write on the water, the handle made of solar panels, and the point illuminates at night. The sculpture rides the water up and down as the tides change.", "material": "steel", "name": "Brush With Illumination", "start_date": "1998", "tourism": "artwork", "website": "http://www.bustersimpson.net/brushwithillumination/"}}, {"type": "node", "id": 9308997387, "lat": 49.2768955, "lon": -123.1288165}, {"type": "node", "id": 9308997388, "lat": 49.2769203, "lon": -123.1288274}, {"type": "node", "id": 9308997389, "lat": 49.2769565, "lon": -123.1288288}, {"type": "node", "id": 9368958199, "lat": 49.2791928, "lon": -123.1111891, "tags": {"artist_name": "Yvonne Lammerich;Ian Carr-Harris", "artist_name:wikidata": "Q59616735;Q15461480", "artwork_type": "sculpture", "material": "bronze", "name": "Writing to You", "tourism": "artwork", "website": "https://vancouver.ca/files/cov/public-art-brochure-writing-to-you.PDF"}}, {"type": "node", "id": 9368973517, "lat": 49.2790832, "lon": -123.1110233, "tags": {"artist_name": "Yvonne Lammerich;Ian Carr-Harris", "artist_name:wikidata": "Q59616735;Q15461480", "artwork_type": "sculpture", "material": "bronze", "name": "Writing to You", "tourism": "artwork", "website": "https://vancouver.ca/files/cov/public-art-brochure-writing-to-you.PDF"}}, {"type": "node", "id": 9398043600, "lat": 49.2632698, "lon": -123.1114084, "tags": {"artist_name": "Beatrice Lennie", "artwork_type": "sculpture", "tourism": "artwork", "website": "https://covapp.vancouver.ca/PublicArtRegistry/ArtworkDetail.aspx?FromArtworkSearch=True&ArtworkId=5"}}, {"type": "node", "id": 9409067315, "lat": 49.2837996, "lon": -123.1195399, "tags": {"artwork_type": "installation", "level": "-1", "name": "Broken Column, (Pendulum)", "tourism": "artwork"}}, {"type": "node", "id": 9409087744, "lat": 49.2799186, "lon": -123.1198521}, {"type": "node", "id": 9409087745, "lat": 49.2797677, "lon": -123.1200842}, {"type": "node", "id": 9409133590, "lat": 49.2804021, "lon": -123.1228172}, {"type": "node", "id": 9409133591, "lat": 49.2803846, "lon": -123.1228142}, {"type": "node", "id": 9409133592, "lat": 49.2803632, "lon": -123.1228559}, {"type": "node", "id": 9409133593, "lat": 49.2803574, "lon": -123.1229603}, {"type": "node", "id": 9409133594, "lat": 49.2803399, "lon": -123.1230392}, {"type": "node", "id": 9409133595, "lat": 49.2803156, "lon": -123.1231093}, {"type": "node", "id": 9409133596, "lat": 49.2803373, "lon": -123.1231546}, {"type": "node", "id": 9409133597, "lat": 49.2803593, "lon": -123.1231093}, {"type": "node", "id": 9409133598, "lat": 49.2803846, "lon": -123.1230303}, {"type": "node", "id": 9409133599, "lat": 49.2803972, "lon": -123.1229707}, {"type": "node", "id": 9409133600, "lat": 49.280407, "lon": -123.1229454}, {"type": "node", "id": 9409133601, "lat": 49.280404, "lon": -123.1228723}, {"type": "node", "id": 9409145401, "lat": 49.2797979, "lon": -123.123634}, {"type": "node", "id": 9409145402, "lat": 49.2798508, "lon": -123.1232029}, {"type": "node", "id": 9409176469, "lat": 49.2739291, "lon": -123.1160046}, {"type": "node", "id": 9409176470, "lat": 49.2739001, "lon": -123.1159986}, {"type": "node", "id": 9409176471, "lat": 49.2738766, "lon": -123.1159857}, {"type": "node", "id": 9409176472, "lat": 49.2738559, "lon": -123.1159609}, {"type": "node", "id": 9409176473, "lat": 49.2738308, "lon": -123.1159412}, {"type": "node", "id": 9409176474, "lat": 49.2737962, "lon": -123.1159498}, {"type": "node", "id": 9409176475, "lat": 49.27378, "lon": -123.1159755}, {"type": "node", "id": 9409176476, "lat": 49.2737655, "lon": -123.115984}, {"type": "node", "id": 9409176477, "lat": 49.2737448, "lon": -123.1159892}, {"type": "node", "id": 9409176478, "lat": 49.2737208, "lon": -123.1159746}, {"type": "node", "id": 9409176479, "lat": 49.2736996, "lon": -123.1159601}, {"type": "node", "id": 9409176480, "lat": 49.2736806, "lon": -123.1159566}, {"type": "node", "id": 9409176481, "lat": 49.2736644, "lon": -123.115966}, {"type": "node", "id": 9409176482, "lat": 49.2736532, "lon": -123.1159763}, {"type": "node", "id": 9409176483, "lat": 49.2736443, "lon": -123.1159789}, {"type": "node", "id": 9409176484, "lat": 49.2736287, "lon": -123.1159737}, {"type": "node", "id": 9409176485, "lat": 49.2736175, "lon": -123.1159541}, {"type": "node", "id": 9409176486, "lat": 49.2736103, "lon": -123.1159275}, {"type": "node", "id": 9409176487, "lat": 49.2735974, "lon": -123.1159164}, {"type": "node", "id": 9409176488, "lat": 49.2735706, "lon": -123.1159258}, {"type": "node", "id": 9409176489, "lat": 49.2735539, "lon": -123.1159489}, {"type": "node", "id": 9409176490, "lat": 49.2735321, "lon": -123.1159669}, {"type": "node", "id": 9409176491, "lat": 49.2735136, "lon": -123.115972}, {"type": "node", "id": 9409176492, "lat": 49.2734891, "lon": -123.1159652}, {"type": "node", "id": 9409176493, "lat": 49.273469, "lon": -123.1159489}, {"type": "node", "id": 9409176494, "lat": 49.2734589, "lon": -123.1159335}, {"type": "node", "id": 9409176495, "lat": 49.2734427, "lon": -123.1159215}, {"type": "node", "id": 9409176496, "lat": 49.2734277, "lon": -123.1159138}, {"type": "node", "id": 9409176497, "lat": 49.2734087, "lon": -123.1159121}, {"type": "node", "id": 9409176498, "lat": 49.2733975, "lon": -123.1159181}, {"type": "node", "id": 9409237996, "lat": 49.2815734, "lon": -123.1121562}, {"type": "node", "id": 9409237997, "lat": 49.2815354, "lon": -123.1120981}, {"type": "node", "id": 9409244958, "lat": 49.2752684, "lon": -123.1321746}, {"type": "node", "id": 9409244959, "lat": 49.2752642, "lon": -123.1321678}, {"type": "node", "id": 9409244960, "lat": 49.2752669, "lon": -123.1321639}, {"type": "node", "id": 9409244961, "lat": 49.2751457, "lon": -123.1319679}, {"type": "node", "id": 9409244962, "lat": 49.2751386, "lon": -123.1319783}, {"type": "node", "id": 9409244963, "lat": 49.2752594, "lon": -123.1321739}, {"type": "node", "id": 9409244964, "lat": 49.2752614, "lon": -123.1321711}, {"type": "node", "id": 9409244965, "lat": 49.2752659, "lon": -123.1321783}, {"type": "node", "id": 9409264478, "lat": 49.2789539, "lon": -123.120968, "tags": {"artist_name": "Bill Reid", "artwork_type": "sculpture", "material": "wood", "name": "Haida Eagle and Frog Totem Pole", "tourism": "artwork", "website": "https://covapp.vancouver.ca/PublicArtRegistry/ArtworkDetail.aspx?FromArtworkSearch=True&ArtworkId=391"}}, {"type": "node", "id": 9409283261, "lat": 49.2772034, "lon": -123.12973, "tags": {"artist_name": "Rhonda Weppler, Trevor Mahovsky", "artwork_type": "installation", "material": "aluminium", "name": "Idea for a Trellis", "tourism": "artwork", "website": "https://covapp.vancouver.ca/PublicArtRegistry/ArtworkDetail.aspx?FromArtworkSearch=True&ArtworkId=567"}}, {"type": "node", "id": 9409347594, "lat": 49.2715369, "lon": -123.1299779, "tags": {"artist_name": "Doug Taylor", "artwork_type": "installation", "name": "Khenko", "start_date": "2006", "tourism": "artwork", "website": "https://covapp.vancouver.ca/PublicArtRegistry/ArtworkDetail.aspx?FromArtworkSearch=True&ArtworkId=423"}}, {"type": "node", "id": 9409381609, "lat": 49.2769214, "lon": -123.1287756}, {"type": "node", "id": 9432172789, "lat": 49.2703389, "lon": -123.2537598, "tags": {"name": "House Post of qiy\u01ddplen\u01ddx\u02b7", "start_date": "2012-03-20", "tourism": "artwork", "website": "https://students.ubc.ca/ubclife/house-post-capilano"}}, {"type": "node", "id": 9441089789, "lat": 49.2682895, "lon": -123.2560496, "tags": {"artist_name": "Myfanwy MacLeod", "artwork_type": "installation", "material": "concrete", "name": "Wood for the People", "start_date": "2002", "tourism": "artwork", "website": "https://belkin.ubc.ca/collections/#myfanwy-macleod-wood-for-the-people"}}, {"type": "node", "id": 9441146836, "lat": 49.2618677, "lon": -123.2518739}, {"type": "node", "id": 9441146837, "lat": 49.2618731, "lon": -123.2518584}, {"type": "node", "id": 9441146838, "lat": 49.2617674, "lon": -123.2517712}, {"type": "node", "id": 9441146839, "lat": 49.261762, "lon": -123.2517866}, {"type": "node", "id": 9441146840, "lat": 49.2610813, "lon": -123.2506644, "tags": {"artist_name": "George Norris", "artwork_type": "installation", "material": "granite", "name": "Man about to Plant Alfalfa", "tourism": "artwork", "website": "https://belkin.ubc.ca/collections/#george-norris-man-about-to-plant-alfalfa"}}, {"type": "node", "id": 9441146841, "lat": 49.2641495, "lon": -123.2527761, "tags": {"artist_name": "Paul Deggan", "artwork_type": "installation", "material": "metal", "start_date": "1965", "tourism": "artwork", "website": "https://belkin.ubc.ca/collections/#paul-deggan-untitled"}}, {"type": "node", "id": 9441146848, "lat": 49.2684398, "lon": -123.2574906, "tags": {"artist_name": "Jack Harman", "artwork_type": "installation", "name": "Transcendence", "start_date": "1961", "tourism": "artwork"}}, {"type": "node", "id": 9441146849, "lat": 49.2679404, "lon": -123.255894, "tags": {"artist_name": "Robert Clothier", "artwork_type": "sculpture", "material": "concrete", "name": "Three Forms", "start_date": "1956", "tourism": "artwork"}}, {"type": "node", "id": 9441146850, "lat": 49.2639599, "lon": -123.246954, "tags": {"artist_name": "George Norris", "artwork_type": "statue", "material": "bronze", "name": "Mother and Child", "start_date": "1955", "tourism": "artwork"}}, {"type": "node", "id": 9551492192, "lat": 49.0235283, "lon": -123.1049901, "tags": {"artwork_type": "sculpture", "tourism": "artwork"}}, {"type": "node", "id": 9688881693, "lat": 49.2736544, "lon": -123.1270108}, {"type": "node", "id": 9688881694, "lat": 49.2737056, "lon": -123.1270937}, {"type": "node", "id": 9807707387, "lat": 49.1740898, "lon": -123.1811546, "tags": {"artist_name": "Joanne Arnott", "artwork_type": "mural", "direction": "south", "name": "Water Words", "tourism": "artwork", "website": "https://www.richmond.ca/culture/publicart/collection/PublicArt.aspx?ID=443"}}, {"type": "node", "id": 10284191893, "lat": 49.2062648, "lon": -123.1504304, "tags": {"artwork_type": "installation", "name": "Anchor", "tourism": "artwork"}}, {"type": "node", "id": 10708161043, "lat": 49.2591326, "lon": -123.2475014}, {"type": "node", "id": 10708161044, "lat": 49.2590963, "lon": -123.2474992}, {"type": "node", "id": 10708161045, "lat": 49.2590703, "lon": -123.2474811}, {"type": "node", "id": 10708161046, "lat": 49.2590497, "lon": -123.2474525}, {"type": "node", "id": 10708161047, "lat": 49.2590393, "lon": -123.2474181}, {"type": "node", "id": 10708161048, "lat": 49.2590406, "lon": -123.247381}, {"type": "node", "id": 10708161049, "lat": 49.259054, "lon": -123.2473565}, {"type": "node", "id": 10708161050, "lat": 49.259076, "lon": -123.2473507}, {"type": "node", "id": 10708161051, "lat": 49.2591064, "lon": -123.24736}, {"type": "node", "id": 10708161052, "lat": 49.2591431, "lon": -123.2474004}, {"type": "node", "id": 10708161053, "lat": 49.2591489, "lon": -123.2474119}, {"type": "node", "id": 10708161054, "lat": 49.2591556, "lon": -123.24744}, {"type": "node", "id": 10708161055, "lat": 49.2591521, "lon": -123.2474748}, {"type": "node", "id": 10774086265, "lat": 49.2744095, "lon": -123.199231, "tags": {"tourism": "artwork"}}, {"type": "node", "id": 10990198607, "lat": 49.2685232, "lon": -123.2526147, "tags": {"artwork_type": "statue", "tourism": "artwork"}}, {"type": "node", "id": 10995559971, "lat": 49.1955685, "lon": -123.1832563, "tags": {"tourism": "artwork"}}, {"type": "node", "id": 10996237568, "lat": 49.2611055, "lon": -123.242331, "tags": {"tourism": "artwork"}}, {"type": "node", "id": 11023390876, "lat": 49.18887, "lon": -123.130145, "tags": {"artwork_type": "sculpture", "tourism": "artwork"}}, {"type": "node", "id": 11023452285, "lat": 49.1891112, "lon": -123.1329375, "tags": {"tourism": "artwork"}}, {"type": "node", "id": 11023453096, "lat": 49.1880641, "lon": -123.130025, "tags": {"artwork_type": "sculpture", "tourism": "artwork"}}, {"type": "node", "id": 11023510753, "lat": 49.1892362, "lon": -123.12971, "tags": {"tourism": "artwork"}}, {"type": "node", "id": 11023531308, "lat": 49.1892983, "lon": -123.1258633, "tags": {"tourism": "artwork"}}, {"type": "node", "id": 11023598653, "lat": 49.1811117, "lon": -123.1207617, "tags": {"tourism": "artwork"}}, {"type": "node", "id": 11023820631, "lat": 49.1812468, "lon": -123.1172154, "tags": {"tourism": "artwork"}}, {"type": "node", "id": 11024081018, "lat": 49.1632977, "lon": -123.1448934, "tags": {"artist_name": "David Jacob Harder", "artwork_type": "sculpture", "material": "steel", "name": "Together", "tourism": "artwork"}}, {"type": "node", "id": 11180441698, "lat": 49.2570687, "lon": -123.0899378, "tags": {"artist_name": "Vivi Vo Hung Kiet", "artwork_type": "statue", "description": "Commemorates Vietnamese boat people who came to Canada", "material": "bronze", "name": "Vietnamese Boat People Memorial", "tourism": "artwork"}}, {"type": "node", "id": 11194583254, "lat": 49.2445937, "lon": -123.120791, "tags": {"tourism": "artwork"}}, {"type": "node", "id": 11194583255, "lat": 49.2446527, "lon": -123.121059, "tags": {"tourism": "artwork"}}, {"type": "node", "id": 11194583256, "lat": 49.2447575, "lon": -123.1207745, "tags": {"tourism": "artwork"}}, {"type": "node", "id": 11194583301, "lat": 49.2446186, "lon": -123.1209052, "tags": {"tourism": "artwork"}}, {"type": "node", "id": 11194583305, "lat": 49.2448897, "lon": -123.1207943, "tags": {"tourism": "artwork"}}, {"type": "node", "id": 11282489609, "lat": 49.2669725, "lon": -123.090396}, {"type": "node", "id": 11282489610, "lat": 49.2669355, "lon": -123.0903964}, {"type": "node", "id": 11282489611, "lat": 49.266935, "lon": -123.0902803}, {"type": "node", "id": 11282489612, "lat": 49.2669719, "lon": -123.0902799}, {"type": "node", "id": 11362348178, "lat": 49.2708454, "lon": -123.0789062, "tags": {"artwork_type": "sculpture", "material": "metal", "name": "Knight", "tourism": "artwork"}}, {"type": "node", "id": 11450035587, "lat": 49.2715506, "lon": -123.093611, "tags": {"name": "slugs", "tourism": "artwork"}}, {"type": "node", "id": 11672859875, "lat": 49.2608318, "lon": -123.12254, "tags": {"artist:wikidata": "Q28859182", "artist_name": "Martha Sturdy", "artwork_type": "sculpture", "material": "metal", "name": "Untitled", "tourism": "artwork"}}, {"type": "node", "id": 11963329673, "lat": 49.2726076, "lon": -123.0973457, "tags": {"artwork_type": "mural", "name": "FARIO FOST", "tourism": "artwork"}}, {"type": "node", "id": 11969396296, "lat": 49.2823724, "lon": -123.1239405, "tags": {"artist_name": "Nick Gregson", "artwork_type": "mural", "start_date": "2020", "tourism": "artwork"}}, {"type": "node", "id": 12125680540, "lat": 49.1957536, "lon": -123.1850732, "tags": {"artwork_type": "painting", "tourism": "artwork"}}, {"type": "node", "id": 12125680541, "lat": 49.1957596, "lon": -123.1851342, "tags": {"artwork_type": "sculpture", "name": "Shaggin\u2019 Wagon", "tourism": "artwork"}}, {"type": "node", "id": 12472745054, "lat": 49.2654295, "lon": -123.1387418, "tags": {"artwork_type": "statue", "name": "Emily Carr And Friend", "tourism": "artwork"}}, {"type": "node", "id": 12527817269, "lat": 49.1763694, "lon": -123.1505387, "tags": {"artist_name": "Puya Khahili, Charlotte Wall", "artwork_type": "sculpture", "material": "steel", "name": "Typha", "tourism": "artwork"}}, {"type": "node", "id": 12543055721, "lat": 49.0532814, "lon": -123.1096859, "tags": {"artwork_type": "totem_pole", "tourism": "artwork"}}, {"type": "node", "id": 12543055722, "lat": 49.0532646, "lon": -123.1096755, "tags": {"artwork_type": "totem_pole", "tourism": "artwork"}}, {"type": "node", "id": 12566683176, "lat": 49.2730979, "lon": -123.1026706, "tags": {"artwork_type": "sculpture", "material": "metal", "tourism": "artwork"}}, {"type": "node", "id": 12573531292, "lat": 49.1753458, "lon": -123.1528852, "tags": {"artist_name": "Patrick Amos;Tim Paul;Rodney Sayers;Tom Paul", "artwork_type": "sculpture", "material": "wood", "name": "Hupakwanum: The Chief's Treasure Box", "tourism": "artwork"}}, {"type": "node", "id": 12590748034, "lat": 49.116984, "lon": -123.1585855, "tags": {"artist_name": "Glen Andersen", "artwork_type": "sculpture", "material": "metal", "name": "Dream of the River", "tourism": "artwork", "website": "https://www.richmond.ca/culture/howartworks/publicart/collection/PublicArt.aspx?ID=137"}}, {"type": "node", "id": 12621255858, "lat": 49.2814826, "lon": -123.1121393}, {"type": "node", "id": 12621255859, "lat": 49.2815108, "lon": -123.1120962}, {"type": "node", "id": 12629306716, "lat": 49.2817138, "lon": -123.1084915, "tags": {"description": "Graffiti art wall", "tourism": "artwork", "website": "https://vancouver.ca/home-property-development/graffiti-art-wall-pilot.aspx"}}, {"type": "node", "id": 12646758253, "lat": 49.2170742, "lon": -123.2121858, "tags": {"artwork_type": "sculpture", "material": "metal", "tourism": "artwork"}}, {"type": "node", "id": 12646758254, "lat": 49.2171143, "lon": -123.2119354, "tags": {"artwork_type": "sculpture", "material": "metal", "tourism": "artwork"}}, {"type": "node", "id": 12650361954, "lat": 49.2489268, "lon": -123.1203928, "tags": {"artwork_type": "sculpture", "material": "metal", "tourism": "artwork"}}, {"type": "node", "id": 12708182757, "lat": 49.2729935, "lon": -123.1219339, "tags": {"artwork_type": "sculpture", "tourism": "artwork"}}, {"type": "way", "id": 108143913, "nodes": [1241180204, 10708161055, 1241180233, 10708161054, 1241180209, 10708161053, 10708161052, 1241180218, 1241180195, 10708161051, 1241180224, 10708161050, 1241180200, 10708161049, 1241180197, 10708161048, 1241180226, 10708161047, 1241180202, 10708161046, 1241180230, 10708161045, 1241180241, 10708161044, 1241180214, 1241180191, 10708161043, 1241180220, 1241180204], "tags": {"area": "yes", "artwork_type": "installation", "name": "Giant Checkerboard", "surface": "paving_stones", "tourism": "artwork"}}, {"type": "way", "id": 367724255, "nodes": [3716138598, 3716138601, 3716138586, 3716138611, 3716138605, 3716138592, 3716138587, 3716138596, 3716138604, 3716138583, 3716138584, 3716138603, 3716138614, 3716138581, 3716138588, 3716138600, 3716138591, 3716138598], "tags": {"area": "yes", "artist_name": "Don Vaughan", "description": "A concrete ring is elevated above a large boulder and stepped concrete blocks descend to the beach.", "inscription": "As the moon circles the earth the oceans responds with the rythm of the tide.", "name": "Marking High Tide", "tourism": "artwork"}}, {"type": "way", "id": 367724256, "nodes": [3716138594, 3716138585, 3716138593, 3716138616, 3716138612, 3716138613, 3716138606, 3716138607, 3716138610, 3716138597, 3716138589, 3716138608, 3716138615, 3716138590, 3716138599, 3716138595, 3716138602, 3716138609, 3716138594], "tags": {"area": "yes", "artist_name": "Don Vaughan", "description": "A circle of granite boulders around a tidal pool.", "name": "Waiting for Lowtide", "tourism": "artwork"}}, {"type": "way", "id": 368197094, "nodes": [4041208062, 4041208063, 3720520688, 3720510886, 3720521387, 3720521073, 3720518088, 3720521074, 3720521075, 4041208059, 4041208060, 4041208061, 3720521388, 3720521076, 3720518089, 3720510887, 3720521077, 3720510535, 3720511050, 4041208062], "tags": {"area": "no", "artist_name": "Beth Alber", "artwork_type": "sculpture", "historic": "monument", "landcover": "grass", "name": "Marker of Change", "tourism": "artwork", "wikidata": "Q473834", "wikipedia": "en:\u00c9cole Polytechnique massacre"}}, {"type": "way", "id": 412502814, "nodes": [4139134614, 4139134615, 4139134616, 4139134617, 4139134618, 4139134619, 4139134620, 4139134621, 4139134622, 4139134623, 4139134624, 4139134614], "tags": {"tourism": "artwork"}}, {"type": "way", "id": 663559031, "nodes": [6210859462, 6210859463, 6210859464, 6210859465, 6210859462], "tags": {"area": "yes", "artist_name": "Bernar Venet", "artwork_type": "sculpture", "description": "Bernar Venet\u2019s monumental work 217.5 Arc x 13 is part of his Arc series of sculptures which illustrate the beauty, balance, and malleability of raw steel.", "material": "steel", "name": "217.5 Arc x 13", "tourism": "artwork", "website": "https://www.vancouverbiennale.com/artworks/217-5-arc-x-13/"}}, {"type": "way", "id": 663574019, "nodes": [6210980114, 8770825937, 6210980115, 6210980116, 8770825936, 6210980117, 6210980118, 6210980119, 8770825938, 6210980114], "tags": {"area": "yes", "artist_name": "Magdalena Abakanowicz", "artwork_type": "sculpture", "description": "They appear to be walking aimlessly without sight, and the sombre tone makes reference to both time and loss.", "material": "cast_iron", "name": "Walking Figures \u2013 Cambie at Broadway", "tourism": "artwork", "website": "https://www.vancouverbiennale.com/artworks/walkingfigures/"}}, {"type": "way", "id": 663578408, "nodes": [6211005481, 6211005482, 6211005483, 6211005484, 6211005481], "tags": {"area": "yes", "artist_name": "Michael Zheng", "artwork_type": "sculpture", "description": "A series of stop signs with their backs painted pink, is conceptually based, often taking the form of situational intervention, sculpture and performance. ", "name": "The Stop", "tourism": "artwork", "website": "https://www.vancouverbiennale.com/artworks/stop/"}}, {"type": "way", "id": 682012289, "nodes": [6386863914, 6386863913, 6386863912, 6386863914], "tags": {"area": "yes", "artwork_type": "installation", "name": "True North Tower", "tourism": "artwork"}}, {"type": "way", "id": 682015794, "nodes": [6386896235, 6386896234, 6386896233, 6386896232, 6386896235], "tags": {"artist_name": "Rodney Graham", "building": "hut", "name": "Millennial Time Machine", "start_date": "2003", "tourism": "artwork", "wheelchair": "yes"}}, {"type": "way", "id": 847365607, "nodes": [7907271954, 7907271953, 7907271952, 7907271951, 7907271950, 7907271949, 7907271948, 7907271947, 7907271946, 7907271945, 7907271944, 7907271943, 7907271942, 7907271941, 7907271940, 7907271939, 7907271938, 7907271937, 7907271936, 7907271935, 7907271934, 7907271933, 7907271932, 7907271954], "tags": {"artist_name": "Judith Schwarz", "artwork_type": "sculpture", "name": "Pacific Spiral", "start_date": "2003", "tourism": "artwork"}}, {"type": "way", "id": 1020167216, "nodes": [9409087744, 9409087745], "tags": {"artist_name": "Lutz Haufschild", "artwork_type": "installation", "name": "Cadenza", "start_date": "2009", "tourism": "artwork", "website": "https://covapp.vancouver.ca/PublicArtRegistry/ArtworkDetail.aspx?FromArtworkSearch=True&ArtworkId=875"}}, {"type": "way", "id": 1020175161, "nodes": [9409133590, 9409133591, 9409133592, 9409133593, 9409133594, 9409133595, 9409133596, 9409133597, 9409133598, 9409133599, 9409133600, 9409133601, 9409133590], "tags": {"area": "yes", "artist_name": "Alan Chung Hung", "artwork_type": "installation", "name": "Clouds", "start_date": "1991", "tourism": "artwork", "website": "https://covapp.vancouver.ca/PublicArtRegistry/ArtworkDetail.aspx?FromArtworkSearch=True&ArtworkId=113"}}, {"type": "way", "id": 1020176519, "nodes": [9409176469, 9409176470, 9409176471, 9409176472, 9409176473, 9409176474, 9409176475, 9409176476, 9409176477, 9409176478, 9409176479, 9409176480, 9409176481, 9409176482, 9409176483, 9409176484, 9409176485, 9409176486, 9409176487, 9409176488, 9409176489, 9409176490, 9409176491, 9409176492, 9409176493, 9409176494, 9409176495, 9409176496, 9409176497, 9409176498], "tags": {"artist_name": "Alan Storey", "artwork_type": "installation", "level": "1", "name": "Coopers Mews", "start_date": "2002", "tourism": "artwork", "website": "https://covapp.vancouver.ca/PublicArtRegistry/ArtworkDetail.aspx?FromArtworkSearch=True&ArtworkId=66"}}, {"type": "way", "id": 1020177666, "nodes": [9409145401, 1209779667, 9409145402], "tags": {"artist_name": "Bill Pechet", "artwork_type": "installation", "name": "Dichroic Vancouver", "start_date": "2015", "tourism": "artwork", "website": "https://covapp.vancouver.ca/PublicArtRegistry/ArtworkDetail.aspx?FromArtworkSearch=True&ArtworkId=621"}}, {"type": "way", "id": 1020178531, "nodes": [9688881694, 9688881693], "tags": {"artist_name": "Elizabeth McIntosh", "artwork_type": "installation", "name": "Finger Paint", "start_date": "2018", "tourism": "artwork", "website": "https://covapp.vancouver.ca/PublicArtRegistry/ArtworkDetail.aspx?FromArtworkSearch=True&ArtworkId=749"}}, {"type": "way", "id": 1020185375, "nodes": [9409237996, 9409237997], "tags": {"artist_name": "Kathleen Ritter", "artwork_type": "installation", "material": "neon", "name": "Gaslight", "start_date": "2020", "tourism": "artwork", "website": "https://covapp.vancouver.ca/PublicArtRegistry/ArtworkDetail.aspx?FromArtworkSearch=True&ArtworkId=863"}}, {"type": "way", "id": 1020186000, "nodes": [9409244958, 9409244959, 9409244960, 9409244961, 9409244962, 9409244963, 9409244964, 9409244965, 9409244958], "tags": {"amenity": "table", "artist_name": "Bill Pechet, Stephanie Robb", "artwork_type": "sculpture", "material": "concrete;granite;steel;bronze", "name": "GRANtable", "tourism": "artwork", "website": "https://covapp.vancouver.ca/PublicArtRegistry/ArtworkDetail.aspx?FromArtworkSearch=True&ArtworkId=281"}}, {"type": "way", "id": 1020197321, "nodes": [9308997387, 9308997388, 9308997389, 9409381609, 9308997387], "tags": {"artist_name": "Germaine Koh", "artwork_type": "installation", "level": "-1", "material": "LED lights", "name": "Life Under the Marquee", "start_date": "2019", "tourism": "artwork", "website": "https://covapp.vancouver.ca/PublicArtRegistry/ArtworkDetail.aspx?FromArtworkSearch=True&ArtworkId=798"}}, {"type": "way", "id": 1023811020, "nodes": [9441146836, 9441146837, 9441146838, 9441146839, 9441146836], "tags": {"area": "yes", "artist_name": "George Norris", "artwork_type": "installation", "barrier": "wall", "material": "masonry", "start_date": "1968", "tourism": "artwork"}}, {"type": "way", "id": 1217655689, "nodes": [11282489609, 11282489610, 11282489611, 11282489612, 11282489609], "tags": {"area": "yes", "tourism": "artwork"}}, {"type": "way", "id": 1363150845, "nodes": [12621255858, 12621255859], "tags": {"artist_name": "Kathryn Walter", "artwork_type": "installation", "material": "copper", "name": "Unlimited Growth Increases the Divide", "start_date": "1990", "tourism": "artwork", "website": "https://www.kathrynwalter.ca/home/unlimited-growth"}}]}