{"version": 0.6, "generator": "Overpass API 0.7.62.5 1bd436f1", "osm3s": {"timestamp_osm_base": "2025-04-11T22:09:23Z", "copyright": "The data included in this document is from www.openstreetmap.org. The data is made available under ODbL."}, "elements": [{"type": "node", "id": 338846665, "lat": 49.2824782, "lon": -123.109928, "tags": {"art_registry:website": "https://covapp.vancouver.ca/PublicArtRegistry/ArtworkDetail.aspx?ArtworkId=61", "artist_name": "George Lister Thornton Sharp", "height": "9.14", "heritage:website": "https://www.historicplaces.ca/en/rep-reg/place-lieu.aspx?id=11191", "historic": "memorial", "material": "granite", "memorial": "war_memorial", "name": "Victory Square Cenotaph", "start_date": "1924", "wheelchair": "limited", "wikimedia_commons": "https://commons.wikimedia.org/wiki/Category:Victory_Square_Cenotaph"}}, {"type": "node", "id": 428217683, "lat": 49.2311127, "lon": -123.0851125, "tags": {"historic": "memorial", "memorial": "war_memorial", "name": "Memorial Park Obelisk"}}, {"type": "node", "id": 878174040, "lat": 49.2022126, "lon": -123.117811, "tags": {"direction": "270", "historic": "memorial", "inscription": "July 17th 1985 - Jan. 21st 2008 ANDY SLOBODIAN  Will forever be in our hearts, and we will never forget him", "memorial": "plaque", "name": "Andy Slobodian Memorial", "source": "local knowledge", "website": "https://www.waymarking.com/waymarks/WM9CQE_Andy_Slobodian_Richmond_BC"}}, {"type": "node", "id": 1234226121, "lat": 49.2668272, "lon": -123.2576461, "tags": {"historic": "memorial", "memorial": "stone", "name": "CK Choi Memorial Bell", "source": "survey"}}, {"type": "node", "id": 1234226224, "lat": 49.2668391, "lon": -123.2580432, "tags": {"historic": "memorial", "memorial": "bust", "name": "Rabindranath Tagore", "source": "survey"}}, {"type": "node", "id": 1235353135, "lat": 49.2695903, "lon": -123.2557608, "tags": {"historic": "memorial", "name": "C.U.P.E Local 116", "source": "survey/bing"}}, {"type": "node", "id": 2214057343, "lat": 49.2734983, "lon": -123.069852, "tags": {"historic": "memorial", "memorial": "war_memorial", "source": "Local knowledge", "wheelchair": "yes"}}, {"type": "node", "id": 3666684399, "lat": 49.261194, "lon": -123.1139368, "tags": {"artist_name": "Charles Marega", "historic": "memorial", "memorial": "statue", "name": "George Vancouver", "wikidata": "Q27919857"}}, {"type": "node", "id": 3666684802, "lat": 49.2606834, "lon": -123.1137263, "tags": {"historic": "memorial", "inscription": "G.G. McGeer, K.C. Senator & Mayor 1888 - 1947", "name": "G.G. McGeer, K.C."}}, {"type": "node", "id": 3725483129, "lat": 49.285258, "lon": -123.111437, "tags": {"artist_name": "Coeur de Lion MacCarthy", "artwork_type": "sculpture", "historic": "memorial", "inscription": "To Commemorate Those In The Service Of The Canadian Pacific Railway Company Who At The Call Of King And Country, Left All That Was Dear To Them, Endured Hardship, Faced Danger And Finally Passed Out Of Sight Of Men By The Path Of Duty And Self ...", "inscription:url": "https://commons.wikimedia.org/wiki/Category:Angel_of_Victory", "material": "bronze", "memorial": "war_memorial", "name": "Angel of Victory", "start_date": "1921", "website": "https://covapp.vancouver.ca/PublicArtRegistry/ArtworkDetail.aspx?FromArtworkSearch=True&ArtworkId=24"}}, {"type": "node", "id": 4049757967, "lat": 49.2773377, "lon": -123.1137691, "tags": {"artist": "Douglas Coupland", "artist:wikidata": "Q322060", "historic": "memorial", "material": "metal", "memorial": "statue", "name": "Terry Fox Memorial", "start_date": "2011", "subject:wikidata": "Q295053", "subject:wikipedia": "en:Terry Fox"}}, {"type": "node", "id": 4832098470, "lat": 49.119992, "lon": -123.0722874, "tags": {"description": "Dedication for the 1959 opening of the tunnel under its original name.", "historic": "memorial", "memorial": "obelisk", "name": "Deas Island Tunnel Plaque", "subject:wikidata": "Q337830", "subject:wikipedia": "en:George Massey Tunnel"}}, {"type": "node", "id": 4927748822, "lat": 49.2833432, "lon": -123.1340379, "tags": {"historic": "memorial", "memorial": "sculpture", "name": "The West End Sex Workers Memorial", "name:en": "The West End Sex Workers Memorial"}}, {"type": "node", "id": 5767392971, "lat": 49.2679874, "lon": -123.251372, "tags": {"artist_name": "Joseph Caveno, Hung Chung", "historic": "memorial", "memorial": "statue", "name": "Goddess of Democracy", "start_date": "1991", "wikimedia_commons": "Category:Goddess of Democracy (University of British Columbia)"}}, {"type": "node", "id": 6150410996, "lat": 49.2842061, "lon": -123.099732, "tags": {"historic": "memorial", "inscription": "Wendy Poole\nyou are remembered, respected person\nIn September 2000, the Vancouver Parks Board dedicated this park to Wendy Poole (1968 - 1989), a First Nations woman from the Tsay Keh Dene (People of the Mountains) nation in the north west of the Province", "memorial": "stone", "name": "Wendy Poole Memorial", "wikidata": "Q7982758", "wikipedia": "en:Wendy Poole Park"}}, {"type": "node", "id": 6150424925, "lat": 49.2851939, "lon": -123.102079, "tags": {"historic": "memorial", "inscription": "THE HEART HASIn honor of the spirit of the peoplemurdered in the Downtown Eastsidemany were women and many were nativeaboriginal women. Many of these casesremain unsolved. All My RelationsITS OWN MEMORYDedicated July 29, 1997", "memorial": "stone", "name": "The Heart Has Its Own Memory", "source": "http://www.waymarking.com/waymarks/WM92X9_People_Murdered_in_the_Downtown_Eastside_Vancouver_BC"}}, {"type": "node", "id": 6150426416, "lat": 49.2840296, "lon": -123.1064136, "tags": {"historic": "memorial", "inscription": "A gift to The City and People of Vancouver In memory of Samuel & Katherine Leshgold 1987", "memorial": "fountain", "name": "Samuel & Katherine Leshgold", "website": "https://www.waymarking.com/waymarks/WME0XA_Samuel_Katherine_Leshgold_Vancouver_BC"}}, {"type": "node", "id": 6150431920, "lat": 49.2622871, "lon": -123.124585, "tags": {"historic": "memorial", "inscription": "'When Humans Bleed' Dedicated to The Pioneer Nurses of British Columbia 1900 - 1919  Placed in Memory of Margaret Kennedy Campbell  By her son, Harry Campbell May 1999", "memorial": "sculpture", "name": "When Humans Bleed", "website": "https://www.waymarking.com/waymarks/WM98B2_Pioneer_Nurses_of_British_Columbia_Vancouver_BC"}}, {"type": "node", "id": 6150441196, "lat": 49.2733421, "lon": -123.1548262, "tags": {"historic": "memorial", "memorial": "cairn", "name": "George Alexander Burrows", "url": "http://www.waymarking.com/waymarks/WM9JWP_George_Alexander_Burrows_Vancouver_BC"}}, {"type": "node", "id": 6433226947, "lat": 49.2858209, "lon": -123.0950197, "tags": {"artist_name": "Gerhard Class", "height": "2.5", "historic": "memorial", "material": "granite", "memorial": "stone", "name": "Hastings Mill Commemorative", "start_date": "1966", "website": "https://covapp.vancouver.ca/PublicArtRegistry/ArtworkDetail.aspx?FromArtworkSearch=True&ArtworkId=29"}}, {"type": "node", "id": 6632440477, "lat": 49.2726377, "lon": -123.1252287, "tags": {"historic": "memorial", "material": "metal", "memorial": "plaque", "name": "Dr. David C Lam", "subject": "David Lam", "subject:wikidata": "Q465073"}}, {"type": "node", "id": 7155998814, "lat": 49.2636783, "lon": -123.1027396, "tags": {"historic": "memorial", "inscription": "WINNICK", "material": "metal", "memorial": "ghost_bike", "name": "Dan Winnick", "source": "http://ghostbikes.org/vancouver/dan-winnick", "start_date": "2011-07-21"}}, {"type": "node", "id": 8146897861, "lat": 49.2032004, "lon": -123.117713, "tags": {"direction": "275", "historic": "memorial", "material": "metal", "memorial": "plaque", "name": "Andrew Slobodian"}}, {"type": "node", "id": 9000035306, "lat": 49.2433946, "lon": -123.124351, "tags": {"direction": "225", "historic": "memorial", "material": "concrete", "memorial": "plaque"}}, {"type": "node", "id": 9356225819, "lat": 49.2594303, "lon": -123.1013338, "tags": {"direction": "90", "historic": "memorial", "inscription": "Built January 2002 to honour Monsignor Louis Forget pastor of St. Patrick's, 1917-1960 and the following catholic families who helped establish St. Patrick's parish under his leadership.", "material": "metal", "memorial": "plaque", "name": "The Forget Tower"}}, {"type": "node", "id": 9408933188, "lat": 49.0910909, "lon": -123.0857354, "tags": {"historic": "memorial", "inscription": "In memory of William Henry Ladner. The first settler of Ladner after whom the village is named. Reeve of this municipality almost continuously from 1880-1906. Member of the provincial legislature from 1886-90. Died 1907.", "material": "metal", "memorial": "plaque", "name": "William Henry Ladner"}}, {"type": "node", "id": 9408938213, "lat": 49.1253586, "lon": -123.1809792, "tags": {"historic": "memorial", "memorial": "plaque", "name": "G.H. \"Pete\" and Anna Rolston"}}, {"type": "node", "id": 9408941532, "lat": 49.2573713, "lon": -123.100982, "tags": {"historic": "memorial", "inscription": "This plaque is dedicated to the members of BC Chapter 121, of Watch and Clock Collectors Inc., who have donated their time to restore, maintain, and wind the mechanism, which was built in 1915, by JB Joyce & Co. Ltd., Whitchurch, England.", "memorial": "plaque", "name": "Heritage Hall Tower Clock", "note": "BC Chapter 121, of The National Association of Watch and Clock Collectors Inc."}}, {"type": "node", "id": 9408941554, "lat": 49.2748089, "lon": -123.0704094, "tags": {"historic": "memorial", "inscription": "In Memory Of\nANDREW STUSIAK\nThree decades of serving the Britannia Centre.\nA true ambassador for the East Side.\nWith the courage of his convictions and\na tireless spirit, he gave of himself until it\nmade a difference to the community.", "material": "metal", "memorial": "plaque", "name": "Andrew Stusiak"}}, {"type": "node", "id": 9408949155, "lat": 49.1945345, "lon": -123.1777051, "tags": {"historic": "memorial", "memorial": "plaque", "name": "Chester Johnson"}}, {"type": "node", "id": 9432252131, "lat": 49.2550466, "lon": -123.2325877, "tags": {"historic": "memorial", "name": "Dr. H. Gobind Khorana", "website": "https://www.nobelprize.org/prizes/medicine/1968/khorana/facts/"}}, {"type": "node", "id": 9567213879, "lat": 49.2510561, "lon": -123.0781067, "tags": {"historic": "memorial", "inscription": "NORTH AMERICA'S FIRST TRUE ELECTRIC INTERURBAN LINE\nOF STREETCARS FOUND ITS HOME ON KINGSWAY IN 1890\nWORKING PEOPLE WHO DID NOT OWN THEIR OWN HORSE\nAND BUGGY COULD NOW MAKE THE TRIP BETWEEN VANCOUVER\nAND NEW WESTMINSTER IN AN HOUR AND TEN MINUTES\nA VISUAL", "material": "stone", "memorial": "stone", "name": "Street Cars Memorial"}}, {"type": "node", "id": 9998042929, "lat": 49.285581, "lon": -123.1424295, "tags": {"direction": "275", "historic": "memorial", "inscription": "For the enjoyment of the citizens of Vancouver \nRededicated by the Kiwanis Club of Vancouver\nJune 1998", "material": "metal", "memorial": "plaque"}}, {"type": "node", "id": 10209073845, "lat": 49.2417175, "lon": -123.1228003, "tags": {"historic": "memorial", "memorial": "statue", "name": "Saint John Paul the Great", "start_date": "2015-06-23", "subject:wikidata": "Q989", "subject:wikipedia": "en:Pope John Paul II"}}, {"type": "node", "id": 10746443511, "lat": 49.2295113, "lon": -123.1949264, "tags": {"description": "Welcome post", "historic": "memorial", "memorial": "totem_pole"}}, {"type": "node", "id": 10746443512, "lat": 49.2256424, "lon": -123.1917018, "tags": {"description": "Welcome post", "historic": "memorial", "memorial": "totem_pole"}}, {"type": "node", "id": 11097579128, "lat": 49.273862, "lon": -123.0991742, "tags": {"historic": "memorial", "memorial": "plaque"}}, {"type": "node", "id": 11895205565, "lat": 49.2769872, "lon": -123.1165728, "tags": {"historic": "memorial", "memorial": "plaque"}}, {"type": "node", "id": 11949231145, "lat": 49.2606321, "lon": -123.0777396, "tags": {"historic": "memorial", "memorial": "ghost_bike"}}, {"type": "node", "id": 11999727731, "lat": 49.2847209, "lon": -123.1244509, "tags": {"historic": "memorial", "memorial": "plaque", "name": "Manhatten Apartments"}}]}