{"version": 0.6, "generator": "Overpass API 0.7.62.5 1bd436f1", "osm3s": {"timestamp_osm_base": "2025-04-11T22:33:44Z", "copyright": "The data included in this document is from www.openstreetmap.org. The data is made available under ODbL."}, "elements": [{"type": "node", "id": 392729552, "lat": 49.1859575, "lon": -122.85166, "tags": {"button_operated": "yes", "crossing": "traffic_signals", "crossing:island": "no", "crossing:markings": "lines", "highway": "crossing", "tactile_paving": "no"}}, {"type": "node", "id": 424686909, "lat": 49.263786, "lon": -122.7835231, "tags": {"artwork_type": "mosaic", "name": "Poco Trail Mosaics", "tourism": "artwork"}}, {"type": "node", "id": 424686911, "lat": 49.2631063, "lon": -122.7843832, "tags": {"artwork_type": "mosaic", "name": "Poco Trail Mosaic", "tourism": "artwork"}}, {"type": "node", "id": 766160778, "lat": 49.1672143, "lon": -122.5810822, "tags": {"name": "Birthplace of BC Art Gallery", "tourism": "artwork"}}, {"type": "node", "id": 857886996, "lat": 49.283302, "lon": -122.935669, "tags": {"alt_name": "Kamui Mintara", "artist_name": "Nuburi Toko;Shusei Toko", "artwork_type": "woodcarving", "name": "Playground of the Gods", "note": "Japanese  totem poles sculpted by Nuburi Toko and Shusei Toko, presented by Kushiro City Japan", "start_date": "1990", "tourism": "artwork", "website": "https://www.burnaby.ca/explore-outdoors/parks/burnaby-mountain-conservation-area#accordion-tab-409464569"}}, {"type": "node", "id": 919787635, "lat": 49.2536395, "lon": -122.9011968, "tags": {"name": "Eco Sculpture - Dragon", "note": "Dragon Sculpture", "tourism": "artwork"}}, {"type": "node", "id": 973348455, "lat": 49.2284538, "lon": -123.0230068, "tags": {"artwork_type": "statue", "name": "Ambassador of Peace", "note": "This is a large statue.", "survey:date": "2021-02-09", "tourism": "artwork"}}, {"type": "node", "id": 1394501837, "lat": 49.1858689, "lon": -122.8517047}, {"type": "node", "id": 1817077898, "lat": 49.2038974, "lon": -122.9042601}, {"type": "node", "id": 1817077920, "lat": 49.2039696, "lon": -122.9042413}, {"type": "node", "id": 1817077932, "lat": 49.2039256, "lon": -122.9043054}, {"type": "node", "id": 1817077937, "lat": 49.2039414, "lon": -122.9041959}, {"type": "node", "id": 2282320104, "lat": 49.0033464, "lon": -122.7572136}, {"type": "node", "id": 2282320109, "lat": 49.0033444, "lon": -122.7574285}, {"type": "node", "id": 2282320111, "lat": 49.0034375, "lon": -122.7574306}, {"type": "node", "id": 2282320113, "lat": 49.0034396, "lon": -122.7572157}, {"type": "node", "id": 3498231804, "lat": 49.2082805, "lon": -122.9310369, "tags": {"artwork_type": "mural", "tourism": "artwork"}}, {"type": "node", "id": 4209993189, "lat": 49.2500846, "lon": -122.86216, "tags": {"name": "Home", "tourism": "artwork"}}, {"type": "node", "id": 4331998289, "lat": 49.199745, "lon": -122.9114625, "tags": {"artwork_type": "statue", "height": "2", "inscription": "SIMON FRASER \u00b6 1776 - 1862 \u00b6 Erected by the Native Sons of B.C. and unveiled by Sir Richard McBride 1908 to commemorate the discovery voyage down the river by Simon Fraser 1808.", "memorial": "statue", "name": "Simon Fraser", "tourism": "artwork", "website": "https://www.waymarking.com/waymarks/WM9449_Simon_Fraser_New_Westminster_BC"}}, {"type": "node", "id": 4451112821, "lat": 49.1860655, "lon": -122.851641, "tags": {"button_operated": "yes", "crossing": "traffic_signals", "crossing:island": "no", "crossing:markings": "lines", "highway": "crossing", "tactile_paving": "no", "traffic_signals:sound": "yes", "traffic_signals:vibration": "no"}}, {"type": "node", "id": 4471940670, "lat": 49.1861288, "lon": -122.8516308}, {"type": "node", "id": 4491845406, "lat": 49.2791424, "lon": -122.9160529, "tags": {"artwork_type": "sculpture", "material": "metal", "tourism": "artwork"}}, {"type": "node", "id": 4685793844, "lat": 49.0325, "lon": -122.866276}, {"type": "node", "id": 4697728408, "lat": 49.0216099, "lon": -122.8075722, "tags": {"artist_name": "Denis Kleine", "artwork_type": "sculpture", "description": "Passenger celebrates the history of rail service in White Rock and the significance of visitors who awaited their journey at the White Rock Train Station.", "material": "metal", "name": "Passenger", "tourism": "artwork"}}, {"type": "node", "id": 4827968121, "lat": 49.2039733, "lon": -122.9145761, "tags": {"tourism": "artwork"}}, {"type": "node", "id": 5561191897, "lat": 49.0903455, "lon": -123.0596778, "tags": {"artwork_type": "sculpture", "name": "Ladner Heron", "tourism": "artwork"}}, {"type": "node", "id": 5579720635, "lat": 49.2242381, "lon": -122.890773}, {"type": "node", "id": 5652203734, "lat": 49.0233588, "lon": -122.8121064, "tags": {"artist_name": "Hooman Mehdizadehjafari", "artwork_type": "sculpture", "description": "Infinity Cycle is a figurative-abstract public sculpture commissioned by the City of White Rock in 2017. This stainless steel sculpture is created in commemoration of the 37th anniversary of the Tour de White Rock.", "material": "steel", "name": "Infinity Cycle", "tourism": "artwork"}}, {"type": "node", "id": 5652208308, "lat": 49.0286473, "lon": -122.8024814, "tags": {"artist_name": "Gordon Huether", "artwork_type": "sculpture", "description": "The amphitheater-like sculpture blurs the line between art, sculpture and landscape. The fifty LED lights embedded into the curved pipes create an evening glow. Installed in 2013.", "name": "Rostrum", "tourism": "artwork"}}, {"type": "node", "id": 5652209147, "lat": 49.0310237, "lon": -122.8120471, "tags": {"artist_name": "Douglas Senft", "artwork_type": "sculpture", "description": "Installed in 2007 as a representation of the marine environment in White Rock, this piece embodies the rolling waves of the ocean and crashing surf.", "name": "Holes in the Sky", "tourism": "artwork"}}, {"type": "node", "id": 5652211919, "lat": 49.0292231, "lon": -122.801454, "tags": {"artist_name": "Robert Wyland", "artwork_type": "mural", "description": "This mural of a grey whale family with Pacific bottlenose dolphins is part of the 79 city Wyland Walls campaign to increase appreciation for aquatic habitats. Installed in 1984.", "name": "The Gray Whale Family", "tourism": "artwork"}}, {"type": "node", "id": 5652235608, "lat": 49.0163417, "lon": -122.7904235, "tags": {"artist_name": "Frank Slavin", "artwork_type": "sculpture", "description": "This monolithic granite bear stands at the end of the East Beach Promenade and was placed as a memorial in 1999. The name Grizlee refers to Frank\u2019s son, Lee.", "name": "Grizlee", "tourism": "artwork"}}, {"type": "node", "id": 5652240961, "lat": 49.0173154, "lon": -122.7921197, "tags": {"artist_name": "Matt Todd", "artwork_type": "mosaic", "description": "The mosaic steps offer a spot to relax while wandering East Beach. Each step has been decorated using pieces of colourful tile and placed in the pattern of sunshine. Installed in 2004.", "name": "Walking on Sunshine", "tourism": "artwork"}}, {"type": "node", "id": 5652243839, "lat": 49.0184821, "lon": -122.7965918}, {"type": "node", "id": 5652243840, "lat": 49.0184716, "lon": -122.7965914}, {"type": "node", "id": 5652243841, "lat": 49.0184661, "lon": -122.7966328}, {"type": "node", "id": 5652243842, "lat": 49.0184484, "lon": -122.7966465}, {"type": "node", "id": 5652243843, "lat": 49.0184349, "lon": -122.7966499}, {"type": "node", "id": 5652243844, "lat": 49.0184202, "lon": -122.796639}, {"type": "node", "id": 5652243845, "lat": 49.0184119, "lon": -122.796648}, {"type": "node", "id": 5652243846, "lat": 49.0184219, "lon": -122.7966684}, {"type": "node", "id": 5652243847, "lat": 49.0184417, "lon": -122.7966767}, {"type": "node", "id": 5652243848, "lat": 49.018468, "lon": -122.7966698}, {"type": "node", "id": 5652243849, "lat": 49.0184791, "lon": -122.7966332}, {"type": "node", "id": 5813280598, "lat": 49.2585304, "lon": -123.0459613, "tags": {"artist_name": "Steve (thecreativeindividual.com)", "artwork_type": "mural", "description": "This wall painting shows two steam-powered trains inside an old fashion train stations and silhouettes of people waiting on a platform.\n\nThe artwork is located on the back of a building and also visible from the Renfrew SkyTrain station.", "direction": "350", "tourism": "artwork"}}, {"type": "node", "id": 5854934760, "lat": 49.0484516, "lon": -122.7867444, "tags": {"artwork_type": "sculpture", "tourism": "artwork"}}, {"type": "node", "id": 5919409285, "lat": 49.2748439, "lon": -122.800161, "tags": {"artist_name": "Paul Reimer", "name": "Unity Tree", "start_date": "2016", "tourism": "artwork"}}, {"type": "node", "id": 6062279793, "lat": 49.2232815, "lon": -122.9434724, "tags": {"artist_name": "earthfoundation.ca", "artwork_type": "mural", "description": "Wolfes in a snowy forest at night.", "direction": "225", "tourism": "artwork"}}, {"type": "node", "id": 6062279796, "lat": 49.2232631, "lon": -122.9414434, "tags": {"artwork_type": "mural", "description": "A woman with a white dress is sitting on a roof. In the background one can see the moon, mountains and skyscrapers.", "tourism": "artwork"}}, {"type": "node", "id": 6176068421, "lat": 49.2548569, "lon": -123.0215562, "tags": {"artist_name": "Todd Polich", "artwork_type": "mural", "direction": "270", "tourism": "artwork"}}, {"type": "node", "id": 6199165847, "lat": 49.038684, "lon": -122.734958, "tags": {"artist_name": "Derek Rowe", "artwork_type": "sculpture", "material": "reinforced_concrete", "name": "Teamwork", "start_date": "2011", "tourism": "artwork", "website": "https://www.surrey.ca/arts-culture/surrey-public-art/public-art-collection/teamwork"}}, {"type": "node", "id": 6207076772, "lat": 49.0384493, "lon": -122.8178093, "tags": {"addr:street": "20 Avenue", "artist_name": "Leonard Wells\u00a0and\u00a0Leslie Wells", "artwork_type": "carving", "name": "Under the Double Eagle & Elder Moon", "start_date": "2009", "tourism": "artwork", "website": "https://www.surrey.ca/arts-culture/surrey-public-art/public-art-collection/under-the-double-eagle-and-elder-moon"}}, {"type": "node", "id": 6219136277, "lat": 49.0220891, "lon": -122.8090716, "tags": {"artist_name": "Calvin F. Turner", "artwork_type": "sculpture", "material": "stone", "name": "Binding Spirit", "start_date": "1989", "tourism": "artwork"}}, {"type": "node", "id": 6226004356, "lat": 49.0623962, "lon": -122.803348, "tags": {"artist_name": "Robert Davidson", "artwork_type": "sculpture", "material": "aluminum", "name": "Supernatural Eye", "start_date": "2015", "tourism": "artwork", "website": "https://www.surrey.ca/arts-culture/surrey-public-art/public-art-collection/supernatural-eye"}}, {"type": "node", "id": 6276080891, "lat": 49.2019185, "lon": -122.943256, "tags": {"artwork_type": "installation", "name": "New Westminster Welcomes You", "tourism": "artwork"}}, {"type": "node", "id": 6304794962, "lat": 49.2126181, "lon": -122.9536462, "tags": {"artwork_type": "Woodcarving", "name": "Westmount Park Woodcarving Signboard", "tourism": "artwork"}}, {"type": "node", "id": 6306982901, "lat": 49.032457, "lon": -122.866275}, {"type": "node", "id": 6336376030, "lat": 49.185267, "lon": -122.8512641, "tags": {"artist_name": "Artform Sculpture Studio", "artwork_type": "sculpture", "material": "concrete", "name": "Protecting the Future, Serving the Present", "start_date": "2009", "tourism": "artwork", "website": "https://www.surrey.ca/arts-culture/surrey-public-art/public-art-collection/protecting-the-future-serving-the-present"}}, {"type": "node", "id": 6460902163, "lat": 49.2263157, "lon": -123.0038113, "tags": {"tourism": "artwork"}}, {"type": "node", "id": 6460902165, "lat": 49.22624, "lon": -123.0037641, "tags": {"tourism": "artwork"}}, {"type": "node", "id": 6460902168, "lat": 49.2263012, "lon": -123.003719, "tags": {"tourism": "artwork"}}, {"type": "node", "id": 6483119168, "lat": 49.2218165, "lon": -122.9447189, "tags": {"artist_name": "Alex Yong;James H.;Alice Tai;Lawson Lin", "artwork_type": "mural", "description": "A mural of an orange bird flying upwards towards the start and the hands of a human spread above the bird's wings.", "direction": "225", "name": "Edmonds Rising", "tourism": "artwork"}}, {"type": "node", "id": 6496539057, "lat": 49.2252136, "lon": -123.0035939, "tags": {"tourism": "artwork"}}, {"type": "node", "id": 6507251298, "lat": 49.2262406, "lon": -123.0060411, "tags": {"tourism": "artwork"}}, {"type": "node", "id": 6517320183, "lat": 49.1670607, "lon": -122.7962516}, {"type": "node", "id": 6517320184, "lat": 49.1670326, "lon": -122.7962322}, {"type": "node", "id": 6517350385, "lat": 49.1669081, "lon": -122.7966372}, {"type": "node", "id": 6517350386, "lat": 49.1669353, "lon": -122.7966654}, {"type": "node", "id": 6611027523, "lat": 49.1050532, "lon": -122.826618, "tags": {"artist_name": "John Edward \"Ted\" Neel", "artwork_type": "sculpture", "description": "This totem pole commemorating the Canada Centennial in 1967 stands on the grounds of the Municipal Centre. The totem pole was carved by John Edward (\"Ted\") Neel, a member of a noted family of carvers. This pole is one of four in the area, involving a comm", "height": "8", "heritage": "8", "heritage:operator": "City of Surrey", "heritage:ref": "219", "heritage:since": "2004-01-14", "heritage:website": "https://www.surrey.ca/renovating-building-development/land-planning-development/heritage-conservation/heritage-sites/newtown/centennial-totem-pole", "material": "wood", "name": "Surrey Columbian Centennial Totem Pole", "start_date": "1967", "tourism": "artwork", "website": "https://www.surrey.ca/arts-culture/surrey-public-art/public-art-collection/surrey-columbian-centennial-totem-pole"}}, {"type": "node", "id": 6713115157, "lat": 49.2795988, "lon": -122.8499693}, {"type": "node", "id": 6713115158, "lat": 49.2796475, "lon": -122.8500174}, {"type": "node", "id": 6713115159, "lat": 49.2796807, "lon": -122.8500265}, {"type": "node", "id": 6713115160, "lat": 49.2797062, "lon": -122.8500279}, {"type": "node", "id": 6713115161, "lat": 49.2797243, "lon": -122.8500216}, {"type": "node", "id": 6713115162, "lat": 49.2797357, "lon": -122.8500104}, {"type": "node", "id": 6713115163, "lat": 49.2797421, "lon": -122.8499923}, {"type": "node", "id": 6713115164, "lat": 49.279743, "lon": -122.8499756}, {"type": "node", "id": 6713115165, "lat": 49.279738, "lon": -122.8499554}, {"type": "node", "id": 6713115166, "lat": 49.2797303, "lon": -122.8499449}, {"type": "node", "id": 6713115167, "lat": 49.2797198, "lon": -122.8499379}, {"type": "node", "id": 6713115168, "lat": 49.2797098, "lon": -122.8499351}, {"type": "node", "id": 6713115169, "lat": 49.2796921, "lon": -122.84994}, {"type": "node", "id": 6751264577, "lat": 49.2772369, "lon": -122.8280146, "tags": {"artist_name": "Alberto Cerritos with Rosalina Cerritos and Jaime Torres", "artwork_type": "installation", "name": "Evergreen People", "start_date": "2016", "tourism": "artwork"}}, {"type": "node", "id": 6877300346, "lat": 49.2644845, "lon": -122.9815416, "tags": {"artist_name": "Bruce Voyce", "name": "The Search Engine", "tourism": "artwork"}}, {"type": "node", "id": 6903650479, "lat": 49.279032, "lon": -122.9165672, "tags": {"artwork_type": "sculpture", "layer": "3", "name": "The Avocado", "tourism": "artwork"}}, {"type": "node", "id": 6903650480, "lat": 49.2789098, "lon": -122.916, "tags": {"artwork_type": "statue", "layer": "3", "material": "metal", "name": "Terry Fox", "tourism": "artwork"}}, {"type": "node", "id": 6990960996, "lat": 49.0926655, "lon": -122.6638079, "tags": {"artwork_type": "sculpture", "material": "wood", "name": "Ernest Edward Sandall", "tourism": "artwork"}}, {"type": "node", "id": 7412795462, "lat": 49.2627783, "lon": -122.7488, "tags": {"artwork_type": "statue", "name": "Terry Fox Statue", "tourism": "artwork"}}, {"type": "node", "id": 7487957383, "lat": 49.0894405, "lon": -122.6919187, "tags": {"artwork_type": "sculpture", "material": "concrete", "name": "Elephant", "tourism": "artwork"}}, {"type": "node", "id": 7487957384, "lat": 49.0892859, "lon": -122.6910657, "tags": {"artwork_type": "sculpture", "material": "concrete", "name": "moai", "tourism": "artwork"}}, {"type": "node", "id": 7597371302, "lat": 49.2765181, "lon": -122.913922, "tags": {"artwork_type": "sculpture", "material": "wood", "tourism": "artwork"}}, {"type": "node", "id": 7654078524, "lat": 49.2674737, "lon": -123.0072713, "tags": {"artist_name": "G. Pratt", "artwork_type": "sculpture", "description": "frog sculpture", "material": "concrete", "start_date": "2001", "tourism": "artwork"}}, {"type": "node", "id": 7890680508, "lat": 49.2846505, "lon": -122.7929038, "tags": {"artwork_type": "sculpture", "tourism": "artwork"}}, {"type": "node", "id": 7951764530, "lat": 49.2104292, "lon": -122.8191347, "tags": {"artwork_type": "sculpture", "material": "wood", "tourism": "artwork"}}, {"type": "node", "id": 7983044963, "lat": 49.0834845, "lon": -122.5434628, "tags": {"material": "concrete", "name": "Mori", "tourism": "artwork"}}, {"type": "node", "id": 7993441940, "lat": 49.276823, "lon": -122.9057306, "tags": {"artwork_type": "sculpture", "tourism": "artwork"}}, {"type": "node", "id": 8086181619, "lat": 49.2276311, "lon": -123.0069274, "tags": {"artist_name": "Joe Fafard", "artwork_type": "sculpture", "name": "Bay B\u00e9b\u00e9 II", "survey:date": "2020-11-05", "tourism": "artwork"}}, {"type": "node", "id": 8086206717, "lat": 49.2276305, "lon": -123.0068912, "tags": {"artist_name": "Joe Fafard", "artwork_type": "sculpture", "name": "Evangeline", "survey:date": "2020-11-05", "tourism": "artwork"}}, {"type": "node", "id": 8147813071, "lat": 49.0268642, "lon": -122.8685083}, {"type": "node", "id": 8147813072, "lat": 49.0268643, "lon": -122.8684972}, {"type": "node", "id": 8147813073, "lat": 49.0268207, "lon": -122.8685022}, {"type": "node", "id": 8147813074, "lat": 49.0268219, "lon": -122.8685129}, {"type": "node", "id": 8147813075, "lat": 49.0268621, "lon": -122.8684866}, {"type": "node", "id": 8147813076, "lat": 49.0268577, "lon": -122.8684777}, {"type": "node", "id": 8147813077, "lat": 49.0268517, "lon": -122.8684715}, {"type": "node", "id": 8147813078, "lat": 49.0268446, "lon": -122.8684686}, {"type": "node", "id": 8147813079, "lat": 49.0268374, "lon": -122.8684695}, {"type": "node", "id": 8147813080, "lat": 49.0268307, "lon": -122.8684739}, {"type": "node", "id": 8147813081, "lat": 49.0268253, "lon": -122.8684814}, {"type": "node", "id": 8147813082, "lat": 49.0268218, "lon": -122.8684912}, {"type": "node", "id": 8147813083, "lat": 49.0268253, "lon": -122.8685225}, {"type": "node", "id": 8147813084, "lat": 49.0268306, "lon": -122.8685299}, {"type": "node", "id": 8147813085, "lat": 49.0268371, "lon": -122.8685343}, {"type": "node", "id": 8147813086, "lat": 49.0268442, "lon": -122.8685353}, {"type": "node", "id": 8147813087, "lat": 49.0268512, "lon": -122.8685328}, {"type": "node", "id": 8147813088, "lat": 49.0268572, "lon": -122.868527}, {"type": "node", "id": 8147813089, "lat": 49.0268617, "lon": -122.8685185}, {"type": "node", "id": 8147846649, "lat": 49.1908319, "lon": -122.8552695, "tags": {"artist_name": "Erica Stocking", "artwork_type": "sculpture", "material": "fibreglass", "name": "Blankets: stored", "tourism": "artwork", "website": "https://www.surrey.ca/arts-culture/surrey-public-art/public-art-collection/blankets"}}, {"type": "node", "id": 8147846650, "lat": 49.1908426, "lon": -122.855171, "tags": {"artist_name": "Erica Stocking", "artwork_type": "sculpture", "material": "fibreglass", "name": "Blankets: waiting", "tourism": "artwork", "website": "https://www.surrey.ca/arts-culture/surrey-public-art/public-art-collection/blankets"}}, {"type": "node", "id": 8147846651, "lat": 49.190844, "lon": -122.8550855, "tags": {"artist_name": "Erica Stocking", "artwork_type": "sculpture", "material": "fibreglass", "name": "Blankets: in use", "tourism": "artwork", "website": "https://www.surrey.ca/arts-culture/surrey-public-art/public-art-collection/blankets"}}, {"type": "node", "id": 8147847286, "lat": 49.1189975, "lon": -122.6907863, "tags": {"artist_name": "Jock Hildebrand", "artwork_type": "sculpture", "material": "steel", "name": "Bright Knights", "tourism": "artwork", "website": "https://www.surrey.ca/arts-culture/surrey-public-art/public-art-collection/bright-knights"}}, {"type": "node", "id": 8147853396, "lat": 49.1406504, "lon": -122.8402982, "tags": {"artist_name": "Robert Davidson", "artwork_type": "sculpture", "material": "aluminum", "name": "Eagle Calling", "tourism": "artwork", "website": "https://www.surrey.ca/arts-culture/surrey-public-art/public-art-collection/eagle-calling"}}, {"type": "node", "id": 8147863515, "lat": 49.1352211, "lon": -122.8564226}, {"type": "node", "id": 8147863516, "lat": 49.135221, "lon": -122.8564033}, {"type": "node", "id": 8147863846, "lat": 49.0462176, "lon": -122.7566341}, {"type": "node", "id": 8147863847, "lat": 49.0462143, "lon": -122.7566541}, {"type": "node", "id": 8147863848, "lat": 49.0461376, "lon": -122.7566261}, {"type": "node", "id": 8147863849, "lat": 49.0461403, "lon": -122.7566081}, {"type": "node", "id": 8147863850, "lat": 49.0462066, "lon": -122.7566721}, {"type": "node", "id": 8147863851, "lat": 49.0461954, "lon": -122.7566851}, {"type": "node", "id": 8147863852, "lat": 49.0461821, "lon": -122.7566911}, {"type": "node", "id": 8147863853, "lat": 49.0461683, "lon": -122.7566891}, {"type": "node", "id": 8147863854, "lat": 49.0461556, "lon": -122.7566811}, {"type": "node", "id": 8147863855, "lat": 49.0461455, "lon": -122.7566661}, {"type": "node", "id": 8147863856, "lat": 49.0461392, "lon": -122.7566471}, {"type": "node", "id": 8147863857, "lat": 49.0461466, "lon": -122.7565911}, {"type": "node", "id": 8147863858, "lat": 49.046156, "lon": -122.7565781}, {"type": "node", "id": 8147863859, "lat": 49.0461676, "lon": -122.7565711}, {"type": "node", "id": 8147863860, "lat": 49.0461801, "lon": -122.7565691}, {"type": "node", "id": 8147863861, "lat": 49.0461924, "lon": -122.7565731}, {"type": "node", "id": 8147863862, "lat": 49.0462033, "lon": -122.7565831}, {"type": "node", "id": 8147863863, "lat": 49.0462116, "lon": -122.7565971}, {"type": "node", "id": 8147863864, "lat": 49.0462165, "lon": -122.7566151}, {"type": "node", "id": 8147863865, "lat": 49.0464701, "lon": -122.7553798}, {"type": "node", "id": 8147863866, "lat": 49.0464795, "lon": -122.7553668}, {"type": "node", "id": 8147863867, "lat": 49.046491, "lon": -122.7553598}, {"type": "node", "id": 8147863868, "lat": 49.0465036, "lon": -122.7553578}, {"type": "node", "id": 8147863869, "lat": 49.0465159, "lon": -122.7553618}, {"type": "node", "id": 8147863870, "lat": 49.0465267, "lon": -122.7553718}, {"type": "node", "id": 8147863871, "lat": 49.046535, "lon": -122.7553858}, {"type": "node", "id": 8147863872, "lat": 49.04654, "lon": -122.7554038}, {"type": "node", "id": 8147863873, "lat": 49.0465411, "lon": -122.7554228}, {"type": "node", "id": 8147863874, "lat": 49.0465378, "lon": -122.7554438}, {"type": "node", "id": 8147863875, "lat": 49.04653, "lon": -122.7554608}, {"type": "node", "id": 8147863876, "lat": 49.0465189, "lon": -122.7554738}, {"type": "node", "id": 8147863877, "lat": 49.0465056, "lon": -122.7554798}, {"type": "node", "id": 8147863878, "lat": 49.0464917, "lon": -122.7554778}, {"type": "node", "id": 8147863879, "lat": 49.046479, "lon": -122.7554698}, {"type": "node", "id": 8147863880, "lat": 49.0464689, "lon": -122.7554558}, {"type": "node", "id": 8147863881, "lat": 49.0464627, "lon": -122.7554368}, {"type": "node", "id": 8147863882, "lat": 49.0464611, "lon": -122.7554158}, {"type": "node", "id": 8147863883, "lat": 49.0464637, "lon": -122.7553968}, {"type": "node", "id": 8147864211, "lat": 49.1841634, "lon": -122.8472786, "tags": {"artist_name": "Bruce Voyce", "artwork_type": "sculpture", "material": "metal", "name": "Floraforms and Seeds of Change", "start_date": "2008", "tourism": "artwork", "website": "https://www.surrey.ca/arts-culture/surrey-public-art/public-art-collection/floraforms-seeds-of-change"}}, {"type": "node", "id": 8147867617, "lat": 49.1351873, "lon": -122.8564035}, {"type": "node", "id": 8147867618, "lat": 49.1351873, "lon": -122.8564228}, {"type": "node", "id": 8147869303, "lat": 49.1754426, "lon": -122.82484, "tags": {"artwork_type": "sculpture", "material": "concrete", "tourism": "artwork"}}, {"type": "node", "id": 8147869304, "lat": 49.1754962, "lon": -122.824665, "tags": {"artwork_type": "sculpture", "material": "concrete", "tourism": "artwork"}}, {"type": "node", "id": 8147869305, "lat": 49.1754994, "lon": -122.824456, "tags": {"artist_name": "Eric Robertson", "artwork_type": "sculpture", "material": "concrete", "name": "Continuum: From Seed to Shelter", "start_date": "2009", "tourism": "artwork", "type": "site", "website": "https://www.surrey.ca/arts-culture/surrey-public-art/public-art-collection/continuum-from-seed-to-shelter"}}, {"type": "node", "id": 8147869306, "lat": 49.1754994, "lon": -122.82426, "tags": {"artwork_type": "sculpture", "material": "concrete", "tourism": "artwork"}}, {"type": "node", "id": 8147869307, "lat": 49.1754846, "lon": -122.82406, "tags": {"artwork_type": "sculpture", "material": "concrete", "tourism": "artwork"}}, {"type": "node", "id": 8147869308, "lat": 49.1755007, "lon": -122.825039, "tags": {"artwork_type": "sculpture", "material": "concrete", "tourism": "artwork"}}, {"type": "node", "id": 8147884196, "lat": 49.1553391, "lon": -122.7814278}, {"type": "node", "id": 8147884197, "lat": 49.1553349, "lon": -122.7808391}, {"type": "node", "id": 8147888230, "lat": 49.1334368, "lon": -122.8470478, "tags": {"artist_name": "Claudia Cuesta and Bill Baker", "artwork_type": "installation", "name": "Dancing Tower", "start_date": "2010", "tourism": "artwork", "website": "https://www.surrey.ca/arts-culture/surrey-public-art/public-art-collection/dancing-tower"}}, {"type": "node", "id": 8147930728, "lat": 49.1757379, "lon": -122.7327964}, {"type": "node", "id": 8147930729, "lat": 49.1757379, "lon": -122.7328059}, {"type": "node", "id": 8147930730, "lat": 49.1757327, "lon": -122.7328042}, {"type": "node", "id": 8147930731, "lat": 49.1757251, "lon": -122.7327934}, {"type": "node", "id": 8147930732, "lat": 49.175723, "lon": -122.7327873}, {"type": "node", "id": 8147930733, "lat": 49.1757215, "lon": -122.7327788}, {"type": "node", "id": 8147930734, "lat": 49.1757208, "lon": -122.7327713}, {"type": "node", "id": 8147930735, "lat": 49.1757231, "lon": -122.732765}, {"type": "node", "id": 8147930736, "lat": 49.1757282, "lon": -122.732761}, {"type": "node", "id": 8147930737, "lat": 49.1757323, "lon": -122.7327574}, {"type": "node", "id": 8147930738, "lat": 49.1757374, "lon": -122.7327549}, {"type": "node", "id": 8147930739, "lat": 49.1757432, "lon": -122.7327542}, {"type": "node", "id": 8147930740, "lat": 49.1757461, "lon": -122.7327537}, {"type": "node", "id": 8147930741, "lat": 49.1757506, "lon": -122.7327574}, {"type": "node", "id": 8147930742, "lat": 49.1757515, "lon": -122.7327612}, {"type": "node", "id": 8147930743, "lat": 49.1757507, "lon": -122.7327657}, {"type": "node", "id": 8147930744, "lat": 49.1757484, "lon": -122.732767}, {"type": "node", "id": 8147930745, "lat": 49.1757451, "lon": -122.732767}, {"type": "node", "id": 8147930746, "lat": 49.1757409, "lon": -122.7327675}, {"type": "node", "id": 8147930747, "lat": 49.1757378, "lon": -122.7327687}, {"type": "node", "id": 8147930748, "lat": 49.1757356, "lon": -122.7327728}, {"type": "node", "id": 8147930749, "lat": 49.1757368, "lon": -122.7327768}, {"type": "node", "id": 8147930750, "lat": 49.1757341, "lon": -122.7327773}, {"type": "node", "id": 8147930751, "lat": 49.1757323, "lon": -122.7327803}, {"type": "node", "id": 8147930752, "lat": 49.1757323, "lon": -122.7327871}, {"type": "node", "id": 8147930753, "lat": 49.1757345, "lon": -122.732793}, {"type": "node", "id": 8147930754, "lat": 49.1757394, "lon": -122.7328014}, {"type": "node", "id": 8147976060, "lat": 49.0268415, "lon": -122.8685022, "tags": {"artist_name": "Connie Glover and Deborah Putman", "artwork_type": "mosaic", "name": "Kwomais: A Place of Vision", "start_date": "2012", "tourism": "artwork", "website": "https://www.surrey.ca/arts-culture/surrey-public-art/public-art-collection/kwomais-a-place-of-vision"}}, {"type": "node", "id": 8147980093, "lat": 49.1067873, "lon": -122.7350506, "tags": {"artist_name": "Paul Slipper", "artwork_type": "sculpture", "material": "granite", "name": "Moments in Time: Cowgirl", "start_date": "2009", "tourism": "artwork", "website": "https://www.surrey.ca/arts-culture/surrey-public-art/public-art-collection/moments-in-time"}}, {"type": "node", "id": 8147980094, "lat": 49.1049913, "lon": -122.7349003, "tags": {"artist_name": "Paul Slipper", "artwork_type": "sculpture", "material": "granite", "name": "Moments in Time: Train Conductor", "start_date": "2009", "tourism": "artwork", "website": "https://www.surrey.ca/arts-culture/surrey-public-art/public-art-collection/moments-in-time"}}, {"type": "node", "id": 8147980100, "lat": 49.1057423, "lon": -122.7350356, "tags": {"artist_name": "Paul Slipper", "artwork_type": "sculpture", "material": "granite", "name": "Moments in Time: Farmer", "start_date": "2009", "tourism": "artwork", "website": "https://www.surrey.ca/arts-culture/surrey-public-art/public-art-collection/moments-in-time"}}, {"type": "node", "id": 8147983923, "lat": 49.1045144, "lon": -122.7328847, "tags": {"artist_name": "Andr\u00e9 Gauthier", "artwork_type": "sculpture", "material": "bronze", "name": "Kneeling in Remembrance", "start_date": "2006", "tourism": "artwork"}}, {"type": "node", "id": 8147990709, "lat": 49.1595298, "lon": -122.8382409, "tags": {"artist_name": "Melanie Cassidy, Michael Filimowicz, Brady Marks, and Philippe Pasquier", "name": "Lingua Aqua", "start_date": "2009", "tourism": "artwork", "website": "https://www.surrey.ca/arts-culture/surrey-public-art/public-art-collection/lingua-aqua"}}, {"type": "node", "id": 8147992162, "lat": 49.1551634, "lon": -122.7792126, "tags": {"artwork_type": "statue", "material": "metal", "name": "Lance Corporal Arthur Thomas Fleetwood", "start_date": "2008", "tourism": "artwork", "website": "https://www.surrey.ca/arts-culture/surrey-public-art/public-art-collection/lance-corporal-arthur-thomas-fleetwood"}}, {"type": "node", "id": 8147995890, "lat": 49.1907672, "lon": -122.8534225, "tags": {"artist_name": "Doug Taylor", "artwork_type": "sculpture", "material": "steel_and_aluminum", "name": "Nautilus", "start_date": "2015", "tourism": "artwork", "website": "https://www.surrey.ca/arts-culture/surrey-public-art/public-art-collection/nautilus"}}, {"type": "node", "id": 8148029002, "lat": 49.0399629, "lon": -122.8180453, "tags": {"artist_name": "Ruth Beer and Charlotte Wall", "artwork_type": "sculpture", "name": "Ribbon", "start_date": "2014", "tourism": "artwork", "website": "https://www.surrey.ca/arts-culture/surrey-public-art/public-art-collection/ribbon"}}, {"type": "node", "id": 8148034390, "lat": 49.1870695, "lon": -122.757243, "tags": {"artist_name": "John Webber and Epic Productions", "artwork_type": "light_installation", "check_date": "2024-04-05", "name": "Seasons in the Park", "start_date": "2011", "tourism": "artwork", "website": "https://www.surrey.ca/arts-culture/surrey-public-art/public-art-collection/seasons-in-the-park"}}, {"type": "node", "id": 8148035022, "lat": 49.175813, "lon": -122.8444044, "tags": {"artist_name": "Yvonne Domenge", "artwork_type": "sculpture", "material": "steel", "name": "Ribbon of Life", "start_date": "2013", "tourism": "artwork", "website": "https://www.surrey.ca/arts-culture/surrey-public-art/public-art-collection/ribbon-of-life"}}, {"type": "node", "id": 8148038020, "lat": 49.0349014, "lon": -122.7264199, "tags": {"artist_name": "Derek Rowe", "artwork_type": "sculpture", "fountain": "drinking_fountain", "material": "concrete", "name": "Redwood Forest Mysteries", "start_date": "2002", "tourism": "artwork", "website": "https://www.surrey.ca/arts-culture/surrey-public-art/public-art-collection/redwood-forest-mysteries"}}, {"type": "node", "id": 8148038202, "lat": 49.1275292, "lon": -122.875928, "tags": {"artist_name": "Lorna Boschman, Victoria Moulder, & T\u2019Uy\u2019Tanat-Cease Wyss", "artwork_type": "installation", "name": "Talking Poles", "tourism": "artwork", "website": "https://www.surrey.ca/arts-culture/surrey-public-art/public-art-collection/talking-poles"}}, {"type": "node", "id": 8148038203, "lat": 49.1249214, "lon": -122.875914, "tags": {"artist_name": "Lorna Boschman, Victoria Moulder, & T\u2019Uy\u2019Tanat-Cease Wyss", "artwork_type": "installation", "name": "Talking Poles", "tourism": "artwork", "website": "https://www.surrey.ca/arts-culture/surrey-public-art/public-art-collection/talking-poles"}}, {"type": "node", "id": 8148040650, "lat": 49.0033391, "lon": -122.7575228, "tags": {"artist_name": "Mungo Martin", "artwork_type": "carving", "name": "Skedans Grizzly Bear Pole", "start_date": "1957", "tourism": "artwork", "website": "https://www.surrey.ca/arts-culture/surrey-public-art/public-art-collection/skedans-grizzly-bear-pole"}}, {"type": "node", "id": 8148041349, "lat": 49.1948027, "lon": -122.8011928, "tags": {"artist_name": "Michael Krondl", "artwork_type": "installation", "name": "Splash", "start_date": "2014", "tourism": "artwork", "website": "https://www.surrey.ca/arts-culture/surrey-public-art/public-art-collection/splash"}}, {"type": "node", "id": 8148083342, "lat": 49.1315875, "lon": -122.6952083, "tags": {"artist_name": "Susan Point", "artwork_type": "sculpture", "material": "aluminum", "name": "Water Guardians", "start_date": "2016", "tourism": "artwork", "website": "https://www.surrey.ca/arts-culture/surrey-public-art/public-art-collection/water-guardians"}}, {"type": "node", "id": 8148083343, "lat": 49.1315194, "lon": -122.6952484, "tags": {"artist_name": "Susan Point", "artwork_type": "sculpture", "material": "aluminum", "name": "Water Guardians", "start_date": "2016", "tourism": "artwork", "website": "https://www.surrey.ca/arts-culture/surrey-public-art/public-art-collection/water-guardians"}}, {"type": "node", "id": 8148083344, "lat": 49.131501, "lon": -122.6951442, "tags": {"artist_name": "Susan Point", "artwork_type": "sculpture", "material": "aluminum", "name": "Water Guardians", "start_date": "2016", "tourism": "artwork", "website": "https://www.surrey.ca/arts-culture/surrey-public-art/public-art-collection/water-guardians"}}, {"type": "node", "id": 8148087794, "lat": 49.1623982, "lon": -122.6983299, "tags": {"artist_name": "Derek Rowe", "artwork_type": "sculpture", "material": "concrete", "name": "The New Recruit", "start_date": "2013", "tourism": "artwork", "website": "https://www.surrey.ca/arts-culture/surrey-public-art/public-art-collection/the-new-recruit"}}, {"type": "node", "id": 8148088383, "lat": 49.104342, "lon": -122.7325067, "tags": {"artist_name": "k\u02bcwy\u02bci\u02bcy\u02bce Spring Salmon Studio (Drew Atkins, Phyllis Atkins, and Aaron Jordan)", "artwork_type": "sculpture", "name": "The Rivers that Connect Us", "start_date": "2019", "tourism": "artwork", "website": "https://www.surrey.ca/arts-culture/surrey-public-art/public-art-collection/the-river-that-connects-us"}}, {"type": "node", "id": 8148101642, "lat": 49.0387129, "lon": -122.734958}, {"type": "node", "id": 8148101643, "lat": 49.0386572, "lon": -122.734958}, {"type": "node", "id": 8148116829, "lat": 49.0312788, "lon": -122.8016304, "tags": {"artist_name": "Glen Andersen", "artwork_type": "mosaic", "name": "The Train Arriving at the Station", "start_date": "2014", "tourism": "artwork", "website": "https://www.surrey.ca/arts-culture/surrey-public-art/public-art-collection/the-train-arriving-at-the-station"}}, {"type": "node", "id": 8148124861, "lat": 49.0348895, "lon": -122.8014542, "tags": {"artist_name": "Jacqueline Metz and Nancy Chew", "artwork_type": "sculpture", "material": "copper", "name": "Tree of Knowledge", "start_date": "2004", "tourism": "artwork", "website": "https://www.surrey.ca/arts-culture/surrey-public-art/public-art-collection/tree-of-knowledge"}}, {"type": "node", "id": 8148124922, "lat": 49.0348981, "lon": -122.8014542}, {"type": "node", "id": 8148124923, "lat": 49.0348798, "lon": -122.8014542}, {"type": "node", "id": 8148125200, "lat": 49.0313122, "lon": -122.798306, "tags": {"artwork_type": "sculpture", "material": "bronze", "name": "water\u2019s edge", "start_date": "2020", "tourism": "artwork", "website": "https://www.surrey.ca/arts-culture/surrey-public-art/public-art-collection/waters-edge"}}, {"type": "node", "id": 8148126246, "lat": 49.1608178, "lon": -122.8460291, "tags": {"artist_name": "Phyllis Atkins", "artwork_type": "installation", "name": "We Are All Connected to This Land", "start_date": "2019", "tourism": "artwork", "website": "https://www.surrey.ca/arts-culture/surrey-public-art/public-art-collection/we-are-all-connected-to-this-land"}}, {"type": "node", "id": 8148126247, "lat": 49.1608064, "lon": -122.8455294, "tags": {"artist_name": "Phyllis Atkins", "artwork_type": "installation", "name": "We Are All Connected to This Land", "start_date": "2019", "tourism": "artwork", "website": "https://www.surrey.ca/arts-culture/surrey-public-art/public-art-collection/we-are-all-connected-to-this-land"}}, {"type": "node", "id": 8171769217, "lat": 49.2265613, "lon": -123.0133376, "tags": {"artwork_type": "mural", "survey:date": "2020-11-27", "tourism": "artwork"}}, {"type": "node", "id": 8181671718, "lat": 49.1648458, "lon": -122.8078691, "tags": {"artwork_type": "installation", "tourism": "artwork"}}, {"type": "node", "id": 8218545596, "lat": 49.0968335, "lon": -122.6571358, "tags": {"artwork_type": "sculpture", "tourism": "artwork"}}, {"type": "node", "id": 8248805365, "lat": 49.1844731, "lon": -122.8458009, "tags": {"advertising": "totem", "artwork_type": "sculpture", "inscription": "CENTRAL CITY", "man_made": "advertising", "tourism": "artwork"}}, {"type": "node", "id": 8441749019, "lat": 49.2347312, "lon": -123.0237156, "tags": {"artwork_type": "mural", "tourism": "artwork"}}, {"type": "node", "id": 8505009938, "lat": 49.2619214, "lon": -122.7812118, "tags": {"Date": "2013", "artist_name": "R Tetreault, I Whitehead, Sharifam", "artwork_type": "mural", "name": "Salmon Mural", "tourism": "artwork"}}, {"type": "node", "id": 8505009939, "lat": 49.2620215, "lon": -122.7814495, "tags": {"artwork_type": "mural", "name": "Original Salmon Mural", "tourism": "artwork"}}, {"type": "node", "id": 8505009940, "lat": 49.2619905, "lon": -122.7799984, "tags": {"artist_name": "Community Members", "artwork_type": "mural", "name": "Port Coqitlam Community Mosaic", "tourism": "artwork"}}, {"type": "node", "id": 8505009943, "lat": 49.2619697, "lon": -122.7827689, "tags": {"artist_name": "Liesl Petersen", "artwork_type": "mural", "date": "2020", "name": "Pocoboo", "tourism": "artwork"}}, {"type": "node", "id": 8505009944, "lat": 49.2622313, "lon": -122.7820621, "tags": {"artist_name": "Tammy Pilon", "artwork_type": "painting", "name": "Port Coquitlam", "tourism": "artwork"}}, {"type": "node", "id": 8505009945, "lat": 49.2617888, "lon": -122.7832829, "tags": {"artist_name": "Grafx by Doug", "artwork_type": "mural", "name": "Days of Thunder", "tourism": "artwork"}}, {"type": "node", "id": 8505009946, "lat": 49.2636662, "lon": -122.7806781, "tags": {"Date": "1998", "artist_name": "Brandie Rowluck, Carol Ham, Adrian Hrytzak", "artwork_type": "mural", "name": "History of the City of Port Coquitlam", "tourism": "artwork"}}, {"type": "node", "id": 8505009947, "lat": 49.2634553, "lon": -122.7801971, "tags": {"artist_name": "Tammy Pilon, Community Volunteers", "artwork_type": "mural", "date": "1997", "name": "CPR", "tourism": "artwork"}}, {"type": "node", "id": 8505009948, "lat": 49.2655963, "lon": -122.7789151, "tags": {"artwork_type": "mural", "tourism": "artwork"}}, {"type": "node", "id": 8627358152, "lat": 49.0251108, "lon": -122.8350077, "tags": {"artwork_type": "rock-cut", "name": "Whale Rock Carving", "tourism": "artwork"}}, {"type": "node", "id": 8630469982, "lat": 49.2594722, "lon": -122.8928648, "tags": {"tourism": "artwork"}}, {"type": "node", "id": 8677138418, "lat": 49.1944775, "lon": -122.8258597, "tags": {"artwork_type": "sculpture", "name": "Frog", "tourism": "artwork"}}, {"type": "node", "id": 8681436037, "lat": 49.1479855, "lon": -122.7810261}, {"type": "node", "id": 8681436038, "lat": 49.1479854, "lon": -122.7810101}, {"type": "node", "id": 8681436039, "lat": 49.1479774, "lon": -122.7810103}, {"type": "node", "id": 8681436040, "lat": 49.1479775, "lon": -122.7810262}, {"type": "node", "id": 8710686255, "lat": 49.2217867, "lon": -122.995029, "tags": {"artwork_type": "mural", "tourism": "artwork"}}, {"type": "node", "id": 8837264571, "lat": 49.0428381, "lon": -122.8062905, "tags": {"artwork_type": "statue", "tourism": "artwork"}}, {"type": "node", "id": 8893274930, "lat": 49.2297433, "lon": -123.0027545, "tags": {"artist_name": "Glenn Spicer", "artwork_type": "sculpture", "name": "The Eagle and The Dove", "tourism": "artwork"}}, {"type": "node", "id": 8896154152, "lat": 49.2636932, "lon": -123.003621, "tags": {"artist_name": "Reece Terris", "artwork_type": "sculpture", "description": "Checkmark", "name": "Tick", "start_date": "2020", "tourism": "artwork"}}, {"type": "node", "id": 9027265744, "lat": 49.2753997, "lon": -123.0028827, "tags": {"tourism": "artwork"}}, {"type": "node", "id": 9027286056, "lat": 49.2726959, "lon": -123.0028566, "tags": {"tourism": "artwork"}}, {"type": "node", "id": 9053979819, "lat": 49.232775, "lon": -123.019682, "tags": {"artist_name": "Todd Polich", "artwork_type": "mural", "survey:date": "2021-09-01", "tourism": "artwork"}}, {"type": "node", "id": 9081101358, "lat": 49.2337579, "lon": -122.891532, "tags": {"artwork_type": "totem_pole", "tourism": "artwork"}}, {"type": "node", "id": 9130948808, "lat": 49.2653802, "lon": -123.0080975, "tags": {"artwork_type": "sculpture", "tourism": "artwork"}}, {"type": "node", "id": 9309853942, "lat": 49.2524326, "lon": -122.8650635, "tags": {"artist_name": "B. W. Holmes", "artwork_type": "sculpture", "material": "stone", "name": "Bird", "start_date": "1987", "tourism": "artwork"}}, {"type": "node", "id": 9309853944, "lat": 49.2519407, "lon": -122.8654513, "tags": {"artist_name": "C. H. Sam", "artwork_type": "sculpture", "material": "stone", "name": "The Think-Gress", "start_date": "1986", "tourism": "artwork"}}, {"type": "node", "id": 9309853945, "lat": 49.2527124, "lon": -122.8641708, "tags": {"artist_name": "P. Sullivan", "artwork_type": "sculpture", "material": "stone", "name": "Bold as Love", "tourism": "artwork"}}, {"type": "node", "id": 9309853947, "lat": 49.2528735, "lon": -122.8645505, "tags": {"artist_name": "P. Sullivan", "artwork_type": "sculpture", "material": "stone", "name": "Wildflower", "start_date": "1987", "tourism": "artwork"}}, {"type": "node", "id": 9309853951, "lat": 49.253055, "lon": -122.8645223, "tags": {"artist_name": "P. Sullivan", "artwork_type": "sculpture", "material": "stone", "name": "Progress", "start_date": "1986", "tourism": "artwork"}}, {"type": "node", "id": 9442858574, "lat": 49.1858987, "lon": -122.8516718}, {"type": "node", "id": 9533979752, "lat": 49.0367629, "lon": -122.8426046, "tags": {"artwork_type": "sculpture", "material": "stone", "name": "inukshuk", "tourism": "artwork"}}, {"type": "node", "id": 9534087123, "lat": 49.0320442, "lon": -122.845174, "tags": {"artwork_type": "sculpture", "height": "5", "material": "wood", "tourism": "artwork"}}, {"type": "node", "id": 9622603009, "lat": 49.2778714, "lon": -122.9707292, "tags": {"artist_name": "John Clarke, et. al.", "artwork_type": "bust", "height": "4.9", "material": "concrete", "name": "Viking head", "start_date": "1994-06-13", "tourism": "artwork"}}, {"type": "node", "id": 9776058682, "lat": 49.2658977, "lon": -123.006209, "tags": {"artwork_type": "sculpture", "tourism": "artwork"}}, {"type": "node", "id": 9975759416, "lat": 49.2020934, "lon": -123.0268478, "tags": {"artist_name": "Extra Crunchy", "artwork_type": "mural", "check_date": "2024-12-15", "direction": "190", "name": "Spectrum of Emotions", "note": "Use Augmented Reality to review - https://www.instagram.com/goextracrunchy/p/CK7DznnjmQL/?img_index=3", "start_date": "2020", "tourism": "artwork", "website": "https://vanmuralfest.ca/portfolio/river-district-mural-gallery"}}, {"type": "node", "id": 9975759442, "lat": 49.2025295, "lon": -123.0291592, "tags": {"artist_name": "Happen Stance Collective", "artwork_type": "mural", "direction": "190", "name": "Dreaming of Coexistence", "start_date": "2024", "tourism": "artwork", "website": "https://www.instagram.com/p/C-ZLNdxJog2/"}}, {"type": "node", "id": 9975759443, "lat": 49.2025555, "lon": -123.0293074, "tags": {"artist_name": "Mads", "artwork_type": "mural", "direction": "187", "name": "The Regular", "start_date": "2024", "tourism": "artwork"}}, {"type": "node", "id": 9975759445, "lat": 49.2025438, "lon": -123.0296462, "tags": {"artist_name": "Julie Solvstrom", "artwork_type": "mural", "direction": "180", "name": "Home To All / Your Usual Suspects", "start_date": "2024", "tourism": "artwork"}}, {"type": "node", "id": 9975759446, "lat": 49.2025462, "lon": -123.0297753, "tags": {"artist_name": "Anu Chouhan", "artwork_type": "mural", "description": "South Asian girl sitting in a swing", "direction": "185", "tourism": "artwork"}}, {"type": "node", "id": 9975759451, "lat": 49.2027898, "lon": -123.0307119, "tags": {"artwork_type": "mural", "direction": "200", "tourism": "artwork"}}, {"type": "node", "id": 9977540903, "lat": 49.2427083, "lon": -122.973205, "tags": {"tourism": "artwork"}}, {"type": "node", "id": 10028183056, "lat": 49.2415744, "lon": -122.9707822, "tags": {"artwork_type": "sculpture", "name": "Hak Chu/Pak Chu", "tourism": "artwork"}}, {"type": "node", "id": 10035212518, "lat": 49.2292947, "lon": -123.002608, "tags": {"artist_name": "Douglas Coupland", "artwork_type": "sculpture", "tourism": "artwork"}}, {"type": "node", "id": 10067284317, "lat": 49.1196993, "lon": -122.6631943, "tags": {"tourism": "artwork"}}, {"type": "node", "id": 10100720717, "lat": 49.1271751, "lon": -122.6877378, "tags": {"tourism": "artwork"}}, {"type": "node", "id": 10121571460, "lat": 49.2629874, "lon": -122.9871214, "tags": {"artwork_type": "sculpture", "tourism": "artwork"}}, {"type": "node", "id": 10122945656, "lat": 49.2174874, "lon": -122.9082175, "tags": {"artwork_type": "installation", "description": "Totem pole", "tourism": "artwork"}}, {"type": "node", "id": 10187593304, "lat": 49.0074827, "lon": -123.0476998, "tags": {"artwork_type": "sculpture", "name": "The Cow", "tourism": "artwork"}}, {"type": "node", "id": 10617216786, "lat": 49.1111551, "lon": -122.6734295, "tags": {"artwork_subject": "wooden chair", "artwork_type": "sculpture", "colour": "red", "material": "wood", "tourism": "artwork"}}, {"type": "node", "id": 10681843263, "lat": 49.0284564, "lon": -122.8014853, "tags": {"artist_name": "Wang Shugang", "artwork_type": "sculpture", "capacity": "8", "colour": "red", "level": "0", "material": "bronze", "name": "The Meeting", "operator": "Vancouver Biennale", "tourism": "artwork", "website": "https://www.vancouverbiennale.com/artworks/the-meeting"}}, {"type": "node", "id": 10694510868, "lat": 49.0033476, "lon": -122.757371}, {"type": "node", "id": 10694510869, "lat": 49.0034333, "lon": -122.757374}, {"type": "node", "id": 10694510870, "lat": 49.0034343, "lon": -122.7572685}, {"type": "node", "id": 10694510871, "lat": 49.0033491, "lon": -122.7572662}, {"type": "node", "id": 10694510872, "lat": 49.0033746, "lon": -122.7573222}, {"type": "node", "id": 10694510873, "lat": 49.0033511, "lon": -122.7573221}, {"type": "node", "id": 10694510874, "lat": 49.0033511, "lon": -122.757315}, {"type": "node", "id": 10694510875, "lat": 49.0033746, "lon": -122.7573158}, {"type": "node", "id": 10694510876, "lat": 49.0033727, "lon": -122.7572831}, {"type": "node", "id": 10694510877, "lat": 49.0033756, "lon": -122.7572896}, {"type": "node", "id": 10694510878, "lat": 49.0033784, "lon": -122.7572905}, {"type": "node", "id": 10694510879, "lat": 49.0033965, "lon": -122.7572757}, {"type": "node", "id": 10694510880, "lat": 49.0033891, "lon": -122.7572909}, {"type": "node", "id": 10694510881, "lat": 49.003413, "lon": -122.7572755}, {"type": "node", "id": 10694510882, "lat": 49.0033938, "lon": -122.7573008}, {"type": "node", "id": 10694510883, "lat": 49.0034049, "lon": -122.7572968}, {"type": "node", "id": 10694510884, "lat": 49.0033951, "lon": -122.7573098}, {"type": "node", "id": 10694510885, "lat": 49.0034204, "lon": -122.7572993}, {"type": "node", "id": 10694510886, "lat": 49.0034109, "lon": -122.7573123}, {"type": "node", "id": 10694510887, "lat": 49.0034306, "lon": -122.7573199}, {"type": "node", "id": 10694510888, "lat": 49.0034113, "lon": -122.7573283}, {"type": "node", "id": 10694510889, "lat": 49.0034212, "lon": -122.7573403}, {"type": "node", "id": 10694510890, "lat": 49.0033951, "lon": -122.7573322}, {"type": "node", "id": 10694510891, "lat": 49.003403, "lon": -122.7573435}, {"type": "node", "id": 10694510892, "lat": 49.0033935, "lon": -122.75734}, {"type": "node", "id": 10694510893, "lat": 49.0034102, "lon": -122.7573656}, {"type": "node", "id": 10694510894, "lat": 49.0033881, "lon": -122.7573491}, {"type": "node", "id": 10694510895, "lat": 49.0033945, "lon": -122.7573651}, {"type": "node", "id": 10694510896, "lat": 49.0033775, "lon": -122.7573475}, {"type": "node", "id": 10694510897, "lat": 49.0033747, "lon": -122.7573477}, {"type": "node", "id": 10694510898, "lat": 49.0033707, "lon": -122.7573573}, {"type": "node", "id": 10695461311, "lat": 49.02981, "lon": -122.8008842, "tags": {"alt_name": "White Rock Players Club Mural", "artist_name": "Elizabeth Hollick", "artwork_type": "mural", "height": "30'", "name": "The Wonderful Year We Fell In Love", "source": "https://www.peacearchnews.com/community/white-rock-mural-honours-players-club-panto", "start_date": "2014-08-26", "tourism": "artwork", "width": "50'"}}, {"type": "node", "id": 10821096596, "lat": 49.1790004, "lon": -122.7367883, "tags": {"artwork_type": "installation", "tourism": "artwork"}}, {"type": "node", "id": 10821096597, "lat": 49.1802481, "lon": -122.738512, "tags": {"artwork_type": "installation", "tourism": "artwork"}}, {"type": "node", "id": 10821096598, "lat": 49.1791985, "lon": -122.7368324, "tags": {"artwork_type": "installation", "tourism": "artwork"}}, {"type": "node", "id": 10821096600, "lat": 49.179119, "lon": -122.7368585, "tags": {"artwork_type": "installation", "tourism": "artwork"}}, {"type": "node", "id": 10821096603, "lat": 49.180936, "lon": -122.7395703, "tags": {"artwork_type": "installation", "tourism": "artwork"}}, {"type": "node", "id": 10821097306, "lat": 49.1818022, "lon": -122.7402294, "tags": {"artwork_type": "installation", "tourism": "artwork"}}, {"type": "node", "id": 10821097307, "lat": 49.1820532, "lon": -122.7407592, "tags": {"artwork_type": "installation", "tourism": "artwork"}}, {"type": "node", "id": 10821097308, "lat": 49.1824308, "lon": -122.741924, "tags": {"artwork_type": "installation", "tourism": "artwork"}}, {"type": "node", "id": 10821097313, "lat": 49.1842136, "lon": -122.7497723, "tags": {"artwork_type": "installation", "tourism": "artwork"}}, {"type": "node", "id": 10821097314, "lat": 49.1842087, "lon": -122.7497216, "tags": {"artwork_type": "installation", "tourism": "artwork"}}, {"type": "node", "id": 10821097325, "lat": 49.1854597, "lon": -122.7576582, "tags": {"artwork_type": "installation", "tourism": "artwork"}}, {"type": "node", "id": 10821097345, "lat": 49.1789241, "lon": -122.7550372, "tags": {"artwork_type": "installation", "tourism": "artwork"}}, {"type": "node", "id": 10861622884, "lat": 49.2216836, "lon": -122.8914707}, {"type": "node", "id": 10861622885, "lat": 49.221628, "lon": -122.891495}, {"type": "node", "id": 10861622886, "lat": 49.2216192, "lon": -122.8914477}, {"type": "node", "id": 10861622887, "lat": 49.2216748, "lon": -122.8914234}, {"type": "node", "id": 10912683418, "lat": 49.2241112, "lon": -122.8909043}, {"type": "node", "id": 10979821506, "lat": 49.2127301, "lon": -122.9510995, "tags": {"artist_name": "Illarion Gallant", "artwork_type": "sculpture", "material": "metal", "name": "Succession II", "tourism": "artwork"}}, {"type": "node", "id": 11020658849, "lat": 49.2791093, "lon": -122.8474695, "tags": {"artwork_type": "mural", "tourism": "artwork"}}, {"type": "node", "id": 11020658860, "lat": 49.275492, "lon": -122.8500405, "tags": {"artist_name": "Viktor Mitiv", "artwork_type": "sculpture", "bench": "yes", "material": "bronze", "name": "Heartland", "start_date": "2019", "tourism": "artwork"}}, {"type": "node", "id": 11020658863, "lat": 49.2793843, "lon": -122.8291803, "tags": {"artwork_type": "sculpture", "tourism": "artwork"}}, {"type": "node", "id": 11020658870, "lat": 49.2792054, "lon": -122.8466256, "tags": {"artwork_type": "mural", "tourism": "artwork"}}, {"type": "node", "id": 11021359941, "lat": 49.28242, "lon": -122.8298543, "tags": {"artwork_type": "mural", "name": "Stitching Our History", "start_date": "2013", "tourism": "artwork"}}, {"type": "node", "id": 11021359942, "lat": 49.2777722, "lon": -122.8500265, "tags": {"artist_name": "Sara Graham", "artwork_type": "installation", "name": "Portrait of a City", "start_date": "2019", "tourism": "artwork"}}, {"type": "node", "id": 11021359943, "lat": 49.2831175, "lon": -122.8308173, "tags": {"artwork_type": "mural", "name": "Canada 150 Mosaic Mural", "start_date": "2017", "tourism": "artwork"}}, {"type": "node", "id": 11021359944, "lat": 49.2765642, "lon": -122.8570148, "tags": {"artist_name": "Blake Williams", "artwork_type": "stone", "name": "Illuminations", "start_date": "2012", "tourism": "artwork"}}, {"type": "node", "id": 11021359945, "lat": 49.2790091, "lon": -122.838751, "tags": {"artist_name": "Susan Point", "artwork_type": "sculpture", "name": "The River Giver of Life", "start_date": "2004", "tourism": "artwork"}}, {"type": "node", "id": 11021359946, "lat": 49.2799389, "lon": -122.8486383, "tags": {"artist_name": "Dan Bushnell", "artwork_type": "stone", "name": "Morse Code", "start_date": "2006", "tourism": "artwork"}}, {"type": "node", "id": 11021359947, "lat": 49.277649, "lon": -122.8586401, "tags": {"artwork_type": "sculpture", "tourism": "artwork"}}, {"type": "node", "id": 11021359948, "lat": 49.2777625, "lon": -122.8453295, "tags": {"artist_name": "Soren Henrich", "artwork_type": "mural", "name": "Coming and Going", "start_date": "2016", "tourism": "artwork"}}, {"type": "node", "id": 11021359949, "lat": 49.2761199, "lon": -122.8287585, "tags": {"artist_name": "Glen Andersen", "artwork_type": "stone", "material": "concrete", "name": "Footprints", "start_date": "2008", "tourism": "artwork"}}, {"type": "node", "id": 11021707207, "lat": 49.2789627, "lon": -122.8338774, "tags": {"artist_name": "Marianne Nicolson", "artwork_type": "sculpture", "name": "A Prayer for the Return of Abundance", "start_date": "2006", "tourism": "artwork"}}, {"type": "node", "id": 11021707208, "lat": 49.2820313, "lon": -122.8281128, "tags": {"artist_name": "Gerry Houghton", "artwork_type": "sculpture", "material": "aluminium", "name": "Service", "start_date": "2014", "tourism": "artwork"}}, {"type": "node", "id": 11021707210, "lat": 49.2804752, "lon": -122.8485679, "tags": {"artist_name": "Dan Bushnell", "artwork_type": "sculpture", "name": "Buoy Bench", "start_date": "2006", "tourism": "artwork"}}, {"type": "node", "id": 11021707211, "lat": 49.2778405, "lon": -122.8457591, "tags": {"artwork_type": "sculpture", "name": "Canoe", "start_date": "2016", "tourism": "artwork"}}, {"type": "node", "id": 11021707212, "lat": 49.2780041, "lon": -122.8380854, "tags": {"artist_name": "Eric Robertson", "artwork_type": "sculpture", "name": "Junction", "start_date": "2006", "tourism": "artwork"}}, {"type": "node", "id": 11021707213, "lat": 49.2803483, "lon": -122.8283633, "tags": {"artwork_type": "sculpture", "tourism": "artwork"}}, {"type": "node", "id": 11021707215, "lat": 49.277355, "lon": -122.8282849, "tags": {"artist_name": "Parvaneh Roudgar", "artwork_type": "sculpture", "name": "Mother and Child on a Bike", "start_date": "2016", "tourism": "artwork"}}, {"type": "node", "id": 11021707216, "lat": 49.2770982, "lon": -122.8274384, "tags": {"artwork_type": "installation", "name": "Moraine Train", "tourism": "artwork"}}, {"type": "node", "id": 11030858796, "lat": 49.2844355, "lon": -122.8314314, "tags": {"artist_name": "Fae Logie and Rainer Daniels", "artwork_type": "sculpture", "material": "metal", "name": "Journey", "start_date": "2011", "tourism": "artwork"}}, {"type": "node", "id": 11030858798, "lat": 49.2832053, "lon": -122.8312726, "tags": {"artist_name": "Markian Olynyk and Brian Baxter", "artwork_type": "sculpture", "level": "1", "material": "glass", "name": "Movement: The Search for the Perfect Form", "tourism": "artwork"}}, {"type": "node", "id": 11030858803, "lat": 49.2840771, "lon": -122.8329409, "tags": {"artist_name": "James Harry", "artwork_type": "sculpture", "material": "wood", "name": "Saymahmit", "start_date": "2017", "tourism": "artwork"}}, {"type": "node", "id": 11030858804, "lat": 49.2776734, "lon": -122.8586364, "tags": {"artist_name": "Ross Agro", "artwork_type": "sculpture", "material": "glass", "name": "The Queen's Glass Tie", "start_date": "2004", "tourism": "artwork"}}, {"type": "node", "id": 11030881005, "lat": 49.2822383, "lon": -122.8293704, "tags": {"artist_name": "Bruce Voyce", "artwork_type": "sculpture", "material": "metal", "name": "Tidal Train", "start_date": "2014", "tourism": "artwork"}}, {"type": "node", "id": 11030881006, "lat": 49.2834676, "lon": -122.8236588, "tags": {"artist_name": "Eric Robertson", "artwork_type": "sculpture", "material": "metal", "name": "Tidal Windfall", "start_date": "2009", "tourism": "artwork"}}, {"type": "node", "id": 11030881009, "lat": 49.2786674, "lon": -122.850185, "tags": {"artist_name": "Ross Agro", "artwork_type": "mural", "level": "0", "name": "Trial by Stone", "start_date": "2002", "tourism": "artwork"}}, {"type": "node", "id": 11030881010, "lat": 49.2821841, "lon": -122.8297615, "tags": {"artist_name": "Jody Broomfield", "artwork_type": "sculpture", "material": "wood", "name": "Welh Aynexw Nseyxnitm (The Guardian Spirits)", "start_date": "2013", "tourism": "artwork"}}, {"type": "node", "id": 11030881011, "lat": 49.2783896, "lon": -122.851049, "tags": {"artwork_type": "mural", "tourism": "artwork"}}, {"type": "node", "id": 11033150650, "lat": 49.2781673, "lon": -122.8375559, "tags": {"artwork_type": "graffiti", "tourism": "artwork"}}, {"type": "node", "id": 11033150651, "lat": 49.2779361, "lon": -122.837636, "tags": {"artwork_type": "graffiti", "tourism": "artwork"}}, {"type": "node", "id": 11035017069, "lat": 49.0196011, "lon": -122.6674092, "tags": {"artist_name": "Toni Williams", "artwork_type": "installation", "board:title": "Inspirations for Artwork on a Mural, Once a Local Landmark in the Park", "tourism": "artwork"}}, {"type": "node", "id": 11048470712, "lat": 49.2776291, "lon": -122.8502954, "tags": {"artwork_type": "sculpture", "tourism": "artwork"}}, {"type": "node", "id": 11069897547, "lat": 49.2051431, "lon": -123.0115649, "tags": {"tourism": "artwork"}}, {"type": "node", "id": 11069897548, "lat": 49.205106, "lon": -123.0113479, "tags": {"tourism": "artwork"}}, {"type": "node", "id": 11069897549, "lat": 49.2050148, "lon": -123.011498, "tags": {"tourism": "artwork"}}, {"type": "node", "id": 11182364880, "lat": 49.2843904, "lon": -123.0430046, "tags": {"artwork_type": "statue", "tourism": "artwork"}}, {"type": "node", "id": 11200636443, "lat": 49.2788038, "lon": -122.8392674, "tags": {"artist_name": "James Harry", "artwork_type": "sculpture", "material": "fibreglass", "name": "LHEW'QUM", "tourism": "artwork"}}, {"type": "node", "id": 11252203160, "lat": 49.1794207, "lon": -122.8284097, "tags": {"artist_name": "Madeleine Vrignon", "artwork_type": "statue", "material": "bronze", "tourism": "artwork"}}, {"type": "node", "id": 11457580327, "lat": 49.2626433, "lon": -123.0085267, "tags": {"artist_name": "Eric Robertson", "name": "Chub Creek", "tourism": "artwork"}}, {"type": "node", "id": 11488279453, "lat": 49.0701562, "lon": -122.6440986, "tags": {"artwork_type": "statue", "material": "wood", "tourism": "artwork", "type": "totem_pole"}}, {"type": "node", "id": 12052292253, "lat": 49.2631182, "lon": -122.9979026, "tags": {"artist_name": "James Nizam", "artwork_type": "sculpture", "material": "steel", "name": "Ornamentum", "start_date": "2020", "tourism": "artwork"}}, {"type": "node", "id": 12052292254, "lat": 49.2653509, "lon": -122.9944206, "tags": {"artwork_type": "sculpture", "description": "Many canoes attached with thin cables to a steel frame.", "start_date": "2024", "tourism": "artwork"}}, {"type": "node", "id": 12207910725, "lat": 49.2210476, "lon": -122.9757021, "tags": {"tourism": "artwork"}}, {"type": "node", "id": 12351882220, "lat": 49.2417188, "lon": -122.8776052, "tags": {"artwork_type": "statue", "tourism": "artwork"}}, {"type": "node", "id": 12429073830, "lat": 49.2019155, "lon": -123.0257499, "tags": {"artist_name": "Arty Guava", "artwork_type": "mural", "check_date": "2024-12-15", "direction": "190", "name": "Dance With Me", "start_date": "2020", "tourism": "artwork", "website": "https://vanmuralfest.ca/portfolio/river-district-mural-gallery"}}, {"type": "node", "id": 12429073831, "lat": 49.2020009, "lon": -123.0262092, "tags": {"artist_name": "Lukas Lundberg", "artwork_type": "mural", "check_date": "2024-12-15", "description": "Digital glitched dogs and cat", "direction": "187", "name": "Furry Glitch", "start_date": "2020", "tourism": "artwork", "website": "https://vanmuralfest.ca/portfolio/river-district-mural-gallery"}}, {"type": "node", "id": 12429073832, "lat": 49.2019522, "lon": -123.0259296, "tags": {"artist_name": "Fernanda Ribero", "artwork_type": "mural", "check_date": "2024-12-15", "direction": "187", "name": "We Can't Do It Alone", "start_date": "2020", "tourism": "artwork", "website": "https://vanmuralfest.ca/portfolio/river-district-mural-gallery"}}, {"type": "node", "id": 12429073833, "lat": 49.2020234, "lon": -123.0263814, "tags": {"artist_name": "David Camisa", "artwork_type": "mural", "check_date": "2024-12-15", "description": "Woman entangled in octopus tentacles and seaweed", "direction": "190", "name": "Entangled", "start_date": "2020", "tourism": "artwork", "website": "https://vanmuralfest.ca/portfolio/river-district-mural-gallery"}}, {"type": "node", "id": 12429073834, "lat": 49.2020588, "lon": -123.026627, "tags": {"artist_name": "Ciele Beau", "artwork_type": "mural", "check_date": "2024-12-15", "description": "Yawning woman with purple coffee thrown at her, with the words \"Wake Up!\" at the bottom", "direction": "190", "name": "Wake Up", "start_date": "2020", "tourism": "artwork", "website": "https://vanmuralfest.ca/portfolio/river-district-mural-gallery"}}, {"type": "node", "id": 12429073835, "lat": 49.2021255, "lon": -123.0270432, "tags": {"artist_name": "Rory Doyle", "artwork_type": "mural", "check_date": "2024-12-15", "description": "Walking legs on a blue background", "direction": "190", "name": "LegWork", "start_date": "2020", "tourism": "artwork", "website": "https://vanmuralfest.ca/portfolio/river-district-mural-gallery"}}, {"type": "node", "id": 12429073836, "lat": 49.2021551, "lon": -123.0272494, "tags": {"artist_name": "Alex Fowkes", "artwork_type": "mural", "check_date": "2024-12-15", "direction": "190", "name": "The People Power Revolution", "start_date": "2020", "tourism": "artwork", "website": "https://vanmuralfest.ca/portfolio/river-district-mural-gallery"}}, {"type": "node", "id": 12429073837, "lat": 49.2021866, "lon": -123.0274695, "tags": {"artist_name": "Col Urrutia", "artwork_type": "mural", "direction": "190", "name": "Ur Not There", "start_date": "2021", "tourism": "artwork", "website": "https://www.instagram.com/col.urr/p/CTV1XY8slF2/"}}, {"type": "node", "id": 12429073838, "lat": 49.2022128, "lon": -123.0276527, "tags": {"artist_name": "Kyerim Yoon", "artwork_type": "mural", "description": "Flowers", "direction": "190", "name": "A Bouquet", "tourism": "artwork", "website": "https://www.instagram.com/riverdistrictlivingmagazine/p/C7-t4xSx4fr/F2/"}}, {"type": "node", "id": 12429073854, "lat": 49.2023604, "lon": -123.0284042, "tags": {"artist_name": "Seeroro (Carolyn Wong)", "artwork_type": "mural", "description": "Salmon swimming upstream", "direction": "185", "name": "Golden Hour Run", "tourism": "artwork", "website": "https://www.flickr.com/photos/d70w7/52017977600"}}, {"type": "node", "id": 12429073858, "lat": 49.2023854, "lon": -123.0286188, "tags": {"artist_name": "J\u00e9r\u00f4me Berthier", "artwork_type": "mural", "direction": "190", "tourism": "artwork"}}, {"type": "node", "id": 12429073859, "lat": 49.2025061, "lon": -123.0290756, "tags": {"artist_name": "Simone Diamond", "artwork_type": "mural", "description": "A woman in water peeking above the surface with a setting sun behind the coastal mountains", "direction": "200", "name": "River Woman", "tourism": "artwork", "website": "https://www.instagram.com/p/CTKk1JVFasm/"}}, {"type": "node", "id": 12429073860, "lat": 49.2025523, "lon": -123.0294429, "tags": {"artist_name": "Ro Farmer", "artwork_type": "mural", "direction": "175", "name": "Photo Booth Friends", "start_date": "2024", "tourism": "artwork", "website": "https://www.instagram.com/p/C-a0BMTyETf/"}}, {"type": "node", "id": 12429073866, "lat": 49.2025906, "lon": -123.030078, "tags": {"artist_name": "John Velten", "artwork_type": "mural", "direction": "195", "start_date": "2020", "tourism": "artwork", "website": "https://vanmuralfest.ca/portfolio/river-district-mural-gallery"}}, {"type": "node", "id": 12429073867, "lat": 49.2026372, "lon": -123.0302823, "tags": {"artist_name": "Caitlin McDonagh", "artwork_type": "mural", "direction": "200", "name": "Where You Will Find Me", "start_date": "2020", "tourism": "artwork", "website": "https://www.instagram.com/caitlinmcdonagh/p/CEhSQ5vjlju/ral-gallery"}}, {"type": "node", "id": 12429073868, "lat": 49.2027063, "lon": -123.0305126, "tags": {"artwork_type": "mural", "direction": "210", "tourism": "artwork"}}, {"type": "node", "id": 12429073869, "lat": 49.2028271, "lon": -123.0308662, "tags": {"artist_name": "Spencer Pidgeon", "artwork_type": "mural", "direction": "195", "name": "Everything is Connected", "tourism": "artwork"}}, {"type": "node", "id": 12429073870, "lat": 49.2028584, "lon": -123.0310073, "tags": {"artist_name": "Amy", "artwork_type": "mural", "direction": "190", "name": "Temp\u00eate", "start_date": "2023", "tourism": "artwork", "website": "https://www.instagram.com/p/CvVc7tuyFMc/"}}, {"type": "node", "id": 12429073871, "lat": 49.2028816, "lon": -123.0311473, "tags": {"artist_name": "Preston Buffalo", "artwork_type": "mural", "description": "Bee with First Nation imagery on a honeycomb", "direction": "185", "name": "Buzzing Symmetry: A Reverence for the Sacred Dance of Bees and Geometric Harmony", "tourism": "artwork"}}, {"type": "node", "id": 12429073872, "lat": 49.2028984, "lon": -123.0312684, "tags": {"artist_name": "Celan Bouillet", "artwork_type": "mural", "description": "Flowers and the Moon", "direction": "190", "name": "A Love Letter to the Moon", "tourism": "artwork", "website": "https://www.instagram.com/celanbouillet/p/CvXs5NcJ9z7/"}}, {"type": "node", "id": 12429073873, "lat": 49.2029281, "lon": -123.031462, "tags": {"artist_name": "Valerie Strom", "artwork_type": "mural", "description": "Woman holding a food basket with background flower and bird designs", "direction": "190", "name": "Totoltecayotl", "tourism": "artwork", "website": "https://www.instagram.com/p/CvDjkMvyB6r/"}}, {"type": "node", "id": 12429073874, "lat": 49.2030153, "lon": -123.0319269, "tags": {"artist_name": "Gordon Dick and Olivia George", "artwork_type": "mural", "direction": "190", "name": "Water is life", "start_date": "2022", "tourism": "artwork", "website": "https://vanmuralfest.ca/blog/vmf2022-neighbourhood-river-district"}}, {"type": "node", "id": 12429073875, "lat": 49.2030912, "lon": -123.0322904, "tags": {"alt_name": "Mother of water", "artist_name": "Miguel Ot\u00e1lora and Juan Carlos Arenas", "artwork_type": "mural", "description": "Dragon", "direction": "195", "name": "La Yacumama", "start_date": "2022", "tourism": "artwork", "website": "https://vanmuralfest.ca/blog/vmf2022-neighbourhood-river-district"}}, {"type": "node", "id": 12429073876, "lat": 49.2031184, "lon": -123.0324005, "tags": {"artist_name": "Joy Kim and Karl Hipol", "artwork_type": "mural", "direction": "200", "name": "Water: Connecting Roots", "start_date": "2022", "tourism": "artwork", "website": "https://vanmuralfest.ca/blog/vmf2022-neighbourhood-river-district"}}, {"type": "node", "id": 12429073877, "lat": 49.2031994, "lon": -123.032763, "tags": {"artist_name": "Jocelyn Sanchez/creamyskeletons and Jess Stanley", "artwork_type": "mural", "direction": "195", "name": "Interdependence", "start_date": "2022", "tourism": "artwork", "website": "https://vanmuralfest.ca/blog/vmf2022-neighbourhood-river-district"}}, {"type": "node", "id": 12429073878, "lat": 49.203228, "lon": -123.0329047, "tags": {"artist_name": "Anqi Cheng/TheCoalCinder and Liang Wan", "artwork_type": "mural", "direction": "195", "name": "Personal Canal", "start_date": "2022", "tourism": "artwork", "website": "https://vanmuralfest.ca/blog/vmf2022-neighbourhood-river-district"}}, {"type": "node", "id": 12429073880, "lat": 49.2032901, "lon": -123.0332861, "tags": {"artist_name": "Nat Zawa", "artwork_type": "mural", "direction": "195", "name": "Under the sun", "start_date": "2022", "tourism": "artwork", "website": "https://www.instagram.com/nat.zawa/p/CbxyvHppy30/"}}, {"type": "node", "id": 12429073882, "lat": 49.2033573, "lon": -123.0336429, "tags": {"artwork_type": "mural", "direction": "195", "tourism": "artwork"}}, {"type": "node", "id": 12429073883, "lat": 49.2034124, "lon": -123.0338626, "tags": {"artwork_type": "mural", "direction": "200", "tourism": "artwork"}}, {"type": "node", "id": 12429073884, "lat": 49.2025496, "lon": -123.0295392, "tags": {"artist_name": "Homa Khosravi", "artwork_type": "mural", "direction": "175", "start_date": "2024", "tourism": "artwork", "website": "https://www.instagram.com/p/C-gXg2MybiU/?__d=1%2F"}}, {"type": "node", "id": 12430135334, "lat": 49.1763682, "lon": -122.9571308, "tags": {"artist_name": "Hanna Benihoud", "artwork_type": "sculpture", "material": "fibreglass", "start_date": "2024", "tourism": "artwork", "website": "https://www.newwestcity.ca/public-art/guardians-of-the-pump.php"}}, {"type": "node", "id": 12430135335, "lat": 49.1764102, "lon": -122.9572198, "tags": {"artist_name": "Hanna Benihoud", "artwork_type": "sculpture", "material": "fibreglass", "start_date": "2024", "tourism": "artwork", "website": "https://www.newwestcity.ca/public-art/guardians-of-the-pump.php"}}, {"type": "node", "id": 12430135336, "lat": 49.1765326, "lon": -122.9570248, "tags": {"artist_name": "Hanna Benihoud", "artwork_type": "sculpture", "material": "fibreglass", "start_date": "2024", "tourism": "artwork", "website": "https://www.newwestcity.ca/public-art/guardians-of-the-pump.php"}}, {"type": "node", "id": 12430135337, "lat": 49.1764917, "lon": -122.9570248, "tags": {"artist_name": "Hanna Benihoud", "artwork_type": "sculpture", "material": "fibreglass", "start_date": "2024", "tourism": "artwork", "website": "https://www.newwestcity.ca/public-art/guardians-of-the-pump.php"}}, {"type": "node", "id": 12430135339, "lat": 49.176588, "lon": -122.9569983, "tags": {"artist_name": "Hanna Benihoud", "artwork_type": "sculpture", "material": "fibreglass", "start_date": "2024", "tourism": "artwork", "website": "https://www.newwestcity.ca/public-art/guardians-of-the-pump.php"}}, {"type": "node", "id": 12454351953, "lat": 49.2851018, "lon": -122.7919565, "tags": {"artwork_type": "sculpture", "description": "Frog made of concrete.", "material": "concrete", "tourism": "artwork"}}, {"type": "node", "id": 12477049120, "lat": 49.2650612, "lon": -123.0089579, "tags": {"artist_name": "Mowry & Colin Baden", "artwork_type": "sculpture", "material": "metal", "name": "Osprey Towers", "start_date": "2023", "tourism": "artwork"}}, {"type": "node", "id": 12545978553, "lat": 49.2237251, "lon": -122.9881314, "tags": {"artwork_type": "mural", "tourism": "artwork"}}, {"type": "node", "id": 12557869485, "lat": 49.2041187, "lon": -122.9845284, "tags": {"artwork_type": "statue", "tourism": "artwork"}}, {"type": "node", "id": 12706178427, "lat": 49.168026, "lon": -122.5731757, "tags": {"artwork_type": "statue", "tourism": "artwork"}}, {"type": "node", "id": 12706206237, "lat": 49.1693056, "lon": -122.5758266, "tags": {"tourism": "artwork"}}, {"type": "node", "id": 12722060830, "lat": 49.2074437, "lon": -122.9051486, "tags": {"artist_name": "Rain Pierre", "artwork_type": "mural", "name": "We Found Love Crosswalk", "tourism": "artwork", "website": "https://www.newwestcity.ca/public-art/we-found-love-crosswalk.php"}}, {"type": "node", "id": 12722060831, "lat": 49.2081298, "lon": -122.9038676, "tags": {"artist_name": "Rain Pierre", "artwork_type": "mural", "name": "Our Children Again Crosswalk", "tourism": "artwork", "website": "https://www.newwestcity.ca/public-art/our-children-again-crosswalk.php"}}, {"type": "way", "id": 170537814, "nodes": [1817077932, 1817077898, 1817077937, 1817077920, 1817077932], "tags": {"tourism": "artwork"}}, {"type": "way", "id": 219029007, "nodes": [2282320111, 2282320109, 2282320104, 2282320113, 2282320111]}, {"type": "way", "id": 447623519, "nodes": [392729552, 4451112821], "tags": {"artwork_type": "mural", "bicycle": "yes", "crossing": "traffic_signals", "crossing:island": "no", "crossing:markings": "lines", "footway": "crossing", "highway": "footway", "lit": "yes", "name": "Rainbow Crosswalk", "surface": "asphalt", "tactile_paving": "no", "tourism": "artwork"}}, {"type": "way", "id": 592159637, "nodes": [5652243839, 5652243840, 5652243841, 5652243842, 5652243843, 5652243844, 5652243845, 5652243846, 5652243847, 5652243848, 5652243849, 5652243839], "tags": {"artist_name": "Robert Davidson", "description": "Created to commemorate the 125th anniversary of the RCMP, the totem poles celebrate and honour Semiahmoo First Nation and the RCMP. Installed in 1999.", "name": "Totem Poles", "tourism": "artwork"}}, {"type": "way", "id": 694183566, "nodes": [6517320183, 6517320184, 6517350385, 6517350386, 6517320183], "tags": {"area": "yes", "artist_name": "Alberto Replanski", "artwork_type": "sculpture", "demolished": "yes", "material": "metal", "name": "Multiples of Three", "start_date": "2002", "tourism": "artwork", "website": "https://www.surrey.ca/arts-culture/surrey-public-art/public-art-collection/multiples-of-three"}}, {"type": "way", "id": 714093622, "nodes": [6713115157, 6713115158, 6713115159, 6713115160, 6713115161, 6713115162, 6713115163, 6713115164, 6713115165, 6713115166, 6713115167, 6713115168, 6713115169, 6713115157], "tags": {"area": "yes", "artist_name": "Nathan Lee and Matthew Thomson", "artwork_type": "sculpture", "name": "Knots", "start_date": "2015", "tourism": "artwork"}}, {"type": "way", "id": 875353531, "nodes": [8147813083, 8147813084, 8147813085, 8147813086, 8147813087, 8147813088, 8147813089, 8147813071, 8147813072, 8147813075, 8147813076, 8147813077, 8147813078, 8147813079, 8147813080, 8147813081, 8147813082, 8147813073, 8147813074, 8147813083], "tags": {"area": "yes", "tourism": "artwork"}}, {"type": "way", "id": 875359311, "nodes": [8147863515, 8147863516, 8147867617, 8147867618, 8147863515], "tags": {"area": "yes", "artist_name": "Luke Blackstone", "artwork_type": "sculpture", "name": "Call of the Siren", "tourism": "artwork", "website": "https://www.surrey.ca/arts-culture/surrey-public-art/public-art-collection/call-of-the-siren"}}, {"type": "way", "id": 875359391, "nodes": [8147863857, 8147863858, 8147863859, 8147863860, 8147863861, 8147863862, 8147863863, 8147863864, 8147863846, 8147863847, 8147863850, 8147863851, 8147863852, 8147863853, 8147863854, 8147863855, 8147863856, 8147863848, 8147863849, 8147863857], "tags": {"area": "yes", "artist_name": "Pierre Sasseville and Jean-Fran\u00e7ois Cooke", "artwork_type": "sculpture", "check_date": "2024-04-02", "name": "Circulation", "start_date": "2015", "tourism": "artwork", "website": "https://www.surrey.ca/arts-culture/surrey-public-art/public-art-collection/circulation"}}, {"type": "way", "id": 875359392, "nodes": [8147863865, 8147863866, 8147863867, 8147863868, 8147863869, 8147863870, 8147863871, 8147863872, 8147863873, 8147863874, 8147863875, 8147863876, 8147863877, 8147863878, 8147863879, 8147863880, 8147863881, 8147863882, 8147863883, 8147863865], "tags": {"area": "yes", "artist_name": "Pierre Sasseville and Jean-Fran\u00e7ois Cooke", "artwork_type": "sculpture", "check_date": "2024-04-02", "name": "Circulation", "start_date": "2015", "tourism": "artwork", "website": "https://www.surrey.ca/arts-culture/surrey-public-art/public-art-collection/circulation"}}, {"type": "way", "id": 875362032, "nodes": [8147884196, 8147884197], "tags": {"artist_name": "Claudine Pommier, Jane Cameron, David Lloyd, Fraser Valley Potters Guild, and Community", "artwork_type": "mosaic", "name": "Fleetwood Mosaics", "start_date": "2002", "tourism": "artwork", "website": "https://www.surrey.ca/arts-culture/surrey-public-art/public-art-collection/fleetwood-mosaics-and-ceramic-mural"}}, {"type": "way", "id": 875366755, "nodes": [8147930728, 8147930754, 8147930729, 8147930730, 8147930731, 8147930732, 8147930733, 8147930734, 8147930735, 8147930736, 8147930737, 8147930738, 8147930739, 8147930740, 8147930741, 8147930742, 8147930743, 8147930744, 8147930745, 8147930746, 8147930747, 8147930748, 8147930749, 8147930750, 8147930751, 8147930752, 8147930753, 8147930728], "tags": {"area": "yes", "artist_name": "Bernie Jestrabek-Hart", "artwork_type": "sculpture", "material": "metal", "name": "Golden Ears Way Eagle", "start_date": "2009", "tourism": "artwork", "website": "https://www.surrey.ca/arts-culture/surrey-public-art/public-art-collection/golden-ears-way-eagle"}}, {"type": "way", "id": 875384591, "nodes": [4685793844, 6306982901], "tags": {"artist_name": "Gwen Curry", "artwork_type": "installation", "name": "Terra Incognita", "start_date": "2001", "tourism": "artwork", "website": "https://www.surrey.ca/arts-culture/surrey-public-art/public-art-collection/terra-incognita"}}, {"type": "way", "id": 875385501, "nodes": [8148101642, 6199165847, 8148101643], "tags": {"artist_name": "Derek Rowe", "artwork_type": "bas_relief", "name": "Teamwork", "tourism": "artwork"}}, {"type": "way", "id": 875387131, "nodes": [8148124922, 8148124861, 8148124923], "tags": {"artist_name": "Jacqueline Metz and Nancy Chew", "artwork_type": "installation", "material": "copper", "name": "Tree of Knowledge", "start_date": "2004", "tourism": "artwork", "website": "https://www.surrey.ca/arts-culture/surrey-public-art/public-art-collection/tree-of-knowledge"}}, {"type": "way", "id": 936943845, "nodes": [8681436037, 8681436038, 8681436039, 8681436040, 8681436037], "tags": {"area": "yes", "artist_name": "Cheryl Hamilton and Mike Vandermeer", "artwork_type": "sculpture", "description": "Gnomon, featured in Fleetwood Park\u2019s perennial garden, is inspired by the notion of a sundial marking time. A gnomon is the central part of a sundial that casts a shadow that marks the passage of time. This artwork tells the story of the passage of time i", "height": "3.048", "material": "cast_iron", "name": "Gnomon", "tourism": "artwork"}}, {"type": "way", "id": 1149601542, "nodes": [10694510868, 10694510869, 10694510870, 10694510871, 10694510868]}, {"type": "way", "id": 1149601543, "nodes": [10694510872, 10694510873, 10694510874, 10694510875, 10694510876, 10694510877, 10694510878, 10694510879, 10694510880, 10694510881, 10694510882, 10694510883, 10694510884, 10694510885, 10694510886, 10694510887, 10694510888, 10694510889, 10694510890, 10694510891, 10694510892, 10694510893, 10694510894, 10694510895, 10694510896, 10694510897, 10694510898, 10694510872]}, {"type": "way", "id": 1151125246, "nodes": [1394501837, 9442858574, 392729552], "tags": {"artwork_type": "mural", "bicycle": "yes", "crossing": "traffic_signals", "crossing:island": "no", "crossing:markings": "lines", "footway": "crossing", "highway": "footway", "lit": "yes", "name": "Rainbow Crosswalk", "surface": "asphalt", "tactile_paving": "no", "tourism": "artwork"}}, {"type": "way", "id": 1151125248, "nodes": [4451112821, 4471940670], "tags": {"artwork_type": "mural", "bicycle": "yes", "crossing": "traffic_signals", "crossing:island": "no", "crossing:markings": "lines", "footway": "crossing", "highway": "footway", "lit": "yes", "name": "Rainbow Crosswalk", "surface": "asphalt", "tactile_paving": "no", "tourism": "artwork"}}, {"type": "way", "id": 1167876460, "nodes": [10861622884, 10861622885, 10861622886, 10861622887, 10861622884], "tags": {"area": "yes", "artwork_type": "installation", "tourism": "artwork"}}, {"type": "way", "id": 1174441175, "nodes": [5579720635, 10912683418], "tags": {"artwork_type": "mural", "name": "The Sappers Were Here", "start_date": "~2020", "tourism": "artwork"}}, {"type": "relation", "id": 13196633, "members": [{"type": "node", "ref": 8147869303, "role": ""}, {"type": "node", "ref": 8147869308, "role": ""}, {"type": "node", "ref": 8147869304, "role": ""}, {"type": "node", "ref": 8147869305, "role": ""}, {"type": "node", "ref": 8147869306, "role": ""}, {"type": "node", "ref": 8147869307, "role": ""}], "tags": {"artist_name": "Eric Robertson", "artwork_type": "sculpture", "material": "concrete", "name": "Continuum: From Seed to Shelter", "start_date": "2009", "tourism": "artwork", "type": "site", "website": "https://www.surrey.ca/arts-culture/surrey-public-art/public-art-collection/continuum-from-seed-to-shelter"}}, {"type": "relation", "id": 15534982, "members": [{"type": "way", "ref": 219029007, "role": "outer"}, {"type": "way", "ref": 1149601542, "role": "inner"}, {"type": "way", "ref": 1149601543, "role": "outer"}], "tags": {"leisure": "garden", "name": "Canadian Flag Garden", "subject": "Flag of Canada", "subject:wikidata": "Q80110", "tourism": "artwork", "type": "multipolygon"}}]}